,codigo,municipio,estado,categoria,longitude,latitude,altitude,idh,estabelecimento_saude_sus,anos_finais_ens_fund,anos_iniciais_ens_fund,mortalidade_infantil,matriculas_ens_fund,matriculas_ens_med,docentes_ens_fund,docentes_ens_med,estabelecimentos_ens_fund,estabelecimentos_ens_med,pib_per_capita,urbanizacao_vias_publicas,arborizacao_via_publica,esgotamento_sanitario_adequado,percent_populacao_renda_per_capita_mais_meio_salario,taxa_escolarizacao_6-14,populacao_exposta_risco,populacao_ultimo_censo,populacao_estimada,internacoes_diarreia_sus_por_cem_mil,despesas_brutas_empenhadas,receitas_brutas_realizadas,transferencias_correntes,populacao_ocupada,cod_municipio,prefeito,area_unidade_territorial,hierarquia_urbana,regiao_influencia,sistema_costeiro_marinho,bioma,regiao_intermediaria,regiao_imediata,mesorregiao,microrregiao,area_urbanizada_km2,densidade_demografica,pessoal_ocupado,rendimento_medio_sal_min
4301875,4301875,BARRA DO QUARAÍ,RIO GRANDE DO SUL,VILA,-57.2288432339572,-30.0142235696681,87.749511,0.662,1,4.3,5.9,47.62,589,146,41,13,3,1,91123.36,13.6,97.7,66.3,41.3,97.7,99999999999993.0,4241,4337,,36389007.79,43870985.27,88.63,20.91,4301875,MAHER JABER MAHMUD,1055.937,Centro Local (5),Uruguaiana - Centro Subregional A (3A),Não pertence,Pampa,Uruguaiana,Uruguaiana,Sudoeste Rio-grandense,Campanha Ocidental,1.2,4.02,887.0,1.8
4322400,4322400,URUGUAIANA,RIO GRANDE DO SUL,POVOADO,-56.813506393567,-29.5394755331665,64.974141,0.744,27,4.4,5.3,14.3,14862,4629,814,373,47,18,29322.46,25.2,92.5,81.2,35.6,97.6,12005.0,117210,120885,2.6,456730641.5,486839059.4,72.31,22.69,4322400,CARLOS ALBERTO DELGADO DE DAVID,5702.098,Centro Subregional A (3A),Arranjo Populacional de Porto Alegre/RS - Metrópole (1C),Não pertence,Pampa,Uruguaiana,Uruguaiana,Sudoeste Rio-grandense,Campanha Ocidental,32.65,20.56,26599.0,2.1
4315305,4315305,QUARAÍ,RIO GRANDE DO SUL,CIDADE,-56.4536470403836,-30.3828679608813,118.674261,0.704,7,4.8,6.0,23.72,2747,762,186,66,16,3,27772.79,13.9,92.0,85.7,34.6,99.4,3405.0,23500,23988,,99073535.08,111831382.28,85.66,18.9,4315305,JEFERSON DA SILVA PIRES,3139.995,Centro Local (5),Arranjo Populacional de Porto Alegre/RS - Metrópole (1C),Não pertence,Pampa,Uruguaiana,Santana do Livramento,Sudoeste Rio-grandense,Campanha Ocidental,6.6,7.48,4441.0,1.9
4317103,4317103,SANT'ANA DO LIVRAMENTO,RIO GRANDE DO SUL,POVOADO,-55.1289873430462,-30.5133124151825,165.817506,0.727,16,4.2,5.3,11.2,9442,2681,600,264,53,16,37330.14,18.9,89.5,79.5,33.9,97.6,99999999999993.0,84421,87296,45.0,442415771.3,428560392.9,58.73,22.07,4317103,ANA LUIZA MOURA TAROUCO,6946.407,Centro Subregional B (3B),Arranjo Populacional de Porto Alegre/RS - Metrópole (1C),Não pertence,Pampa,Uruguaiana,Santana do Livramento,Sudoeste Rio-grandense,Campanha Central,24.31,12.15,18634.0,2.0
4310603,4310603,ITAQUI,RIO GRANDE DO SUL,VILA,-55.7643097019299,-29.2252255892341,131.266689,0.713,9,4.7,5.4,26.07,4446,1137,303,96,21,4,58531.72,32.2,96.2,68.5,35.7,98.7,3109.0,35768,36830,,182939044.4,226058978.38,72.28,21.63,4310603,LEONARDO DICSON SANCHEZ BETIN,3405.999,Centro de Zona A (4A),Uruguaiana - Centro Subregional A (3A),Não pertence,Pampa,Uruguaiana,São Borja,Sudoeste Rio-grandense,Campanha Ocidental,12.75,10.5,7736.0,2.3
4300406,4300406,ALEGRETE,RIO GRANDE DO SUL,VILA,-55.5397383098353,-29.6799861556743,95.256113,0.74,27,4.8,5.7,12.08,8056,2578,521,325,42,19,42485.08,30.3,82.1,77.4,34.0,98.9,11634.0,72409,74329,1.4,337982305.5,337040274.7,69.23,20.98,4300406,JESSE TRINDADE DOS SANTOS,7800.552,Centro Subregional B (3B),Arranjo Populacional de Porto Alegre/RS - Metrópole (1C),Não pertence,Pampa,Uruguaiana,Uruguaiana,Sudoeste Rio-grandense,Campanha Ocidental,20.03,9.28,15193.0,2.2
4311718,4311718,MAÇAMBARÁ,RIO GRANDE DO SUL,POVOADO,-56.0335420080395,-29.1470356196023,108.085156,0.684,7,4.3,5.8,16.95,631,332,82,48,5,3,128231.01,0.0,87.6,34.0,41.5,99.3,99999999999993.0,4425,4487,,46857933.09,51562705.06,89.71,11.5,4311718,JOSÉ MARIO DOS SANTOS,1682.676,Centro Local (5),Itaqui - Centro de Zona A (4A)\; São Borja - Centro Subregional B (3B),Não pertence,Pampa,Uruguaiana,São Borja,Sudoeste Rio-grandense,Campanha Ocidental,1.68,2.63,509.0,2.4
4305439,4305439,CHUÍ,RIO GRANDE DO SUL,CIDADE,-53.4626751416843,-33.6875668687297,21.227314,0.706,2,4.5,5.8,,338,196,33,16,2,1,54200.93,14.7,77.6,83.4,35.0,97.7,99999999999993.0,6262,6405,,38139631.04,41254492.95,75.26,45.62,4305439,CARLOS HENRIQUE DA SILVA SEGOVIA,202.387,Centro Local (5),Santa Vitória do Palmar - Centro de Zona A (4A),Pertence,Pampa,Pelotas,Pelotas,Sudeste Rio-grandense,Litoral Lagunar,2.89,30.94,2857.0,1.8
4317301,4317301,SANTA VITÓRIA DO PALMAR,RIO GRANDE DO SUL,AUI,-53.2526798465357,-33.6571338957918,2.465202,0.712,18,4.7,5.5,6.9,3538,1060,277,86,20,4,59922.92,20.0,67.6,80.8,35.1,98.5,99999999999993.0,30983,31961,9.7,208838074.5,226373954.36,74.31,20.7,4317301,ANDRÉ SELAYARAN NICOLETTI,5206.977,Centro de Zona A (4A),Arranjo Populacional de Pelotas/RS - Capital Regional C (2C),Pertence,Pampa,Pelotas,Pelotas,Sudeste Rio-grandense,Litoral Lagunar,16.29,5.95,6413.0,2.2
4311007,4311007,JAGUARÃO,RIO GRANDE DO SUL,NÚCLEO,-53.0648012568544,-32.5063183095296,6.205357,0.707,10,4.1,5.5,7.04,2966,809,215,101,19,6,40239.75,22.7,72.4,61.9,32.8,97.1,1126.0,26603,27406,7.5,143857764.1,155654756.75,69.16,19.96,4311007,ROGERIO LEMOS CRUZ,2051.845,Centro Local (5),Arranjo Populacional de Pelotas/RS - Capital Regional C (2C),Pertence,Pampa,Pelotas,Pelotas,Sudeste Rio-grandense,Jaguarão,8.8,12.97,5310.0,2.0
4300034,4300034,ACEGUÁ,RIO GRANDE DO SUL,VILA,-54.0666496370573,-31.6569687903219,157.874705,0.687,3,4.6,6.2,,607,146,48,15,5,1,91994.39,13.1,79.0,82.2,36.3,93.9,99999999999993.0,4170,4253,,51950521.35,57543013.61,87.18,25.16,4300034,MARCUS VINÍCIUS GODOY DE AGUIAR,1551.339,Centro Subregional A (3A) - Município integrante do Arranjo Populacional de Bagé/RS,Arranjo Populacional de Porto Alegre/RS - Metrópole (1C),Não pertence,Pampa,Pelotas,Bagé,Sudoeste Rio-grandense,Campanha Meridional,2.5,2.69,1049.0,2.8
4301602,4301602,BAGÉ,RIO GRANDE DO SUL,VILA,-53.6734877741673,-30.9330212150596,228.932673,0.74,38,4.6,5.7,18.8,13628,4132,770,332,58,14,30846.53,26.0,88.8,85.3,32.8,97.6,99999999999993.0,117938,121900,120.4,646282087.5,568185483.02,57.87,21.79,4301602,LUIZ FERNANDO MAINARDI,4090.36,Centro Subregional A (3A) - Município integrante do Arranjo Populacional de Bagé/RS,Arranjo Populacional de Porto Alegre/RS - Metrópole (1C),Não pertence,Pampa,Pelotas,Bagé,Sudoeste Rio-grandense,Campanha Meridional,35.79,28.83,25704.0,2.7
4309654,4309654,HULHA NEGRA,RIO GRANDE DO SUL,CIDADE,-53.8678247940087,-31.4050982483871,194.573242,0.643,8,4.6,5.6,11.24,715,238,65,21,6,2,45617.4,0.0,81.8,61.6,39.4,96.0,99999999999993.0,5976,6102,,40310835.49,43749810.18,88.56,38.67,4309654,FERNANDO CAMPANI,822.608,Centro Subregional A (3A) - Município integrante do Arranjo Populacional de Bagé/RS,Arranjo Populacional de Porto Alegre/RS - Metrópole (1C),Não pertence,Pampa,Pelotas,Bagé,Sudoeste Rio-grandense,Campanha Meridional,1.12,7.26,2311.0,2.0
4304358,4304358,CANDIOTA,RIO GRANDE DO SUL,POVOADO,-53.6824931689875,-31.4770100968019,211.58398,0.698,8,3.9,5.2,,1311,344,95,39,9,3,282683.22,53.5,84.3,80.2,37.2,94.9,99999999999993.0,10710,10992,,102839495.9,101010245.1,66.73,27.02,4304358,LUIZ CARLOS FOLADOR,933.628,Centro Subregional A (3A) - Município integrante do Arranjo Populacional de Bagé/RS,Arranjo Populacional de Porto Alegre/RS - Metrópole (1C),Não pertence,Pampa,Pelotas,Bagé,Sudeste Rio-grandense,Serras de Sudeste,4.96,11.47,2894.0,4.3
4307104,4307104,HERVAL,RIO GRANDE DO SUL,VILA,-53.0200020147177,-31.8754887327547,60.587953,0.687,3,4.0,4.6,39.22,706,263,75,30,6,2,37256.6,14.3,63.4,65.0,36.0,97.3,99999999999993.0,6191,6307,,48070682.43,51533426.37,82.41,13.62,4307104,CELSO VIEIRA SILVEIRA,1759.717,Centro Local (5),Arranjo Populacional de Pelotas/RS - Capital Regional C (2C),Não pertence,Pampa,Pelotas,Pelotas,Sudeste Rio-grandense,Jaguarão,1.87,3.52,843.0,1.9
4301305,4301305,ARROIO GRANDE,RIO GRANDE DO SUL,NÚCLEO,-52.6563061281386,-32.0087062251678,26.012665,0.657,13,4.0,5.5,19.9,2065,384,173,34,17,1,62222.04,15.8,63.1,72.2,35.8,98.7,687.0,17558,17887,17.1,103919810.7,115642864.41,76.33,16.41,4301305,PLÍNIO VIZEU PEREIRA NETO,2508.557,Centro Local (5),Arranjo Populacional de Pelotas/RS - Capital Regional C (2C),Pertence,Pampa,Pelotas,Pelotas,Sudeste Rio-grandense,Jaguarão,5.3,7.0,2882.0,2.3
4314175,4314175,PEDRAS ALTAS,RIO GRANDE DO SUL,VILA,-53.7578514604236,-31.8546216724386,167.838854,0.64,1,3.3,5.6,33.33,246,46,39,6,5,1,200305.43,6.8,31.1,66.5,39.6,94.1,99999999999993.0,2061,2100,,38350261.06,45152403.91,79.81,17.9,4314175,VIVIANE MARIA AVILA DE ALBUQUERQUE,1373.985,Centro Local (5),Arranjo Populacional de Pelotas/RS - Capital Regional C (2C),Não pertence,Pampa,Pelotas,Bagé,Sudeste Rio-grandense,Serras de Sudeste,0.37,1.5,369.0,2.5
4314506,4314506,PINHEIRO MACHADO,RIO GRANDE DO SUL,VILA,-53.5005889512995,-31.3158142034064,416.713445,0.661,9,4.0,4.9,9.8,1150,249,84,17,7,1,32810.02,7.3,41.8,77.3,36.1,97.1,99999999999993.0,11214,11409,,81484243.2,81880258.83,74.01,13.29,4314506,RONALDO COSTA MADRUGA,2249.176,Centro Local (5),Arranjo Populacional de Pelotas/RS - Capital Regional C (2C),Não pertence,Pampa,Pelotas,Bagé,Sudeste Rio-grandense,Serras de Sudeste,3.76,4.99,1490.0,2.3
4314605,4314605,PIRATINI,RIO GRANDE DO SUL,CIDADE,-53.1047344539721,-31.4441124733536,337.446317,0.658,9,4.0,5.9,7.41,1695,505,154,49,16,3,42437.1,19.3,83.0,59.9,36.8,97.2,99999999999993.0,17504,17792,,105064384.8,103494494.8,85.86,19.96,4314605,MARCIO MANETTI PORTO,3538.3,Centro Local (5),Arranjo Populacional de Pelotas/RS - Capital Regional C (2C),Não pertence,Pampa,Pelotas,Pelotas,Sudeste Rio-grandense,Serras de Sudeste,4.41,4.95,3494.0,2.1
4316402,4316402,ROSÁRIO DO SUL,RIO GRANDE DO SUL,AUI,-54.8885145406949,-30.2627428246124,93.085222,0.699,17,4.0,5.7,12.05,3949,1209,252,107,22,5,35245.33,11.5,74.5,67.0,33.9,96.5,4875.0,36630,37700,111.9,173326698.2,174424246.29,74.37,18.97,4316402,MARCOS PAULO SILVA DA LUZ,4343.656,Centro de Zona A (4A),Arranjo Populacional de Santa Maria/RS - Capital Regional C (2C),Não pertence,Pampa,Uruguaiana,Santana do Livramento,Sudoeste Rio-grandense,Campanha Central,13.63,8.43,6950.0,2.1
4306601,4306601,DOM PEDRITO,RIO GRANDE DO SUL,VILA,-54.1850786786686,-31.028089984217,389.90544,0.708,17,4.1,5.4,10.9,3968,1093,290,108,32,8,57844.71,16.4,97.8,86.8,32.7,97.5,9174.0,36981,38094,,202679652.4,251848302.13,70.24,18.97,4306601,DIEGO DA ROSA CRUZ,5194.051,Centro de Zona A (4A),Arranjo Populacional de Bagé/RS - Centro Subregional A (3A),Não pertence,Pampa,Pelotas,Bagé,Sudoeste Rio-grandense,Campanha Meridional,12.61,7.12,7015.0,2.2
4318309,4318309,SÃO GABRIEL,RIO GRANDE DO SUL,AUI,-54.2635028421613,-30.3484147056709,142.921767,0.699,13,4.2,5.5,12.89,6859,1941,407,144,36,8,43790.22,16.6,59.0,63.1,35.1,96.9,99999999999993.0,58487,60102,35.9,284764762.0,289827561.64,77.38,19.16,4318309,LUCAS GONÇALVES MENEZES,5053.46,Centro Subregional B (3B) - Município integrante do Arranjo Populacional de São Gabriel/RS,Arranjo Populacional de Santa Maria/RS - Capital Regional C (2C),Não pertence,Pampa,Santa Maria,São Gabriel - Caçapava do Sul,Sudoeste Rio-grandense,Campanha Central,18.31,11.57,11208.0,2.2
4311759,4311759,MANOEL VIANA,RIO GRANDE DO SUL,VILA,-55.4816539041251,-29.2037653618328,104.506609,0.655,6,4.4,6.1,,745,143,61,19,6,1,74773.78,0.7,95.6,16.0,36.1,99.2,99999999999993.0,6801,6917,,39345552.27,52320266.65,82.9,14.06,4311759,ANTONIO FLAVIO FERNANDES BUSNELO,1365.086,Centro Local (5),Alegrete - Centro Subregional B (3B),Não pertence,Pampa,Uruguaiana,Uruguaiana,Sudoeste Rio-grandense,Campanha Ocidental,2.55,4.89,956.0,2.2
4318101,4318101,SÃO FRANCISCO DE ASSIS,RIO GRANDE DO SUL,VILA,-54.9328960671868,-29.4682856942532,194.72578,0.675,10,4.6,5.8,7.14,1642,439,118,41,12,3,44473.17,29.5,96.0,25.4,36.0,98.0,99999999999993.0,17618,17949,,100758933.1,111739166.05,76.97,13.99,4318101,RUBEMAR PAULINHO SALBEGO,2534.789,Centro Local (5),Arranjo Populacional de Santa Maria/RS - Capital Regional C (2C),Não pertence,Pampa,Santa Maria,Santa Maria,Sudoeste Rio-grandense,Campanha Ocidental,7.49,7.03,2465.0,2.2
4322376,4322376,UNISTALDA,RIO GRANDE DO SUL,CIDADE,-55.1507805181379,-29.0474850255841,357.847771,0.649,3,4.7,7.3,,246,59,36,17,3,1,64642.76,0.0,98.7,1.7,41.6,99.5,99999999999993.0,1995,2052,,21549941.21,27612213.2,90.34,15.64,4322376,JOSE GILNEI MANARA MANZONI,602.26,Centro Local (5),Santiago - Centro Subregional B (3B),Não pertence,Pampa,Santa Maria,Santiago,Centro Ocidental Rio-grandense,Santiago,0.79,3.31,312.0,2.2
4302907,4302907,CACEQUI,RIO GRANDE DO SUL,POVOADO,-54.9575903097974,-29.9352299719616,109.782966,0.7,10,4.2,4.9,,1244,326,104,36,14,2,50694.42,12.9,37.3,59.1,38.3,96.5,99999999999993.0,11157,11324,,78025172.66,94581581.03,68.59,15.23,4302907,ANA PAULA MENDES MACHADO DELOLMO,2373.507,Centro Local (5),Arranjo Populacional de Santa Maria/RS - Capital Regional C (2C),Não pertence,Pampa,Santa Maria,Santa Maria,Centro Ocidental Rio-grandense,Santa Maria,6.96,4.7,1699.0,2.2
4319802,4319802,SÃO VICENTE DO SUL,RIO GRANDE DO SUL,AUI,-54.6564384822331,-29.8005870043816,89.510342,0.685,8,4.3,6.1,,879,1170,72,119,7,2,83568.15,16.3,43.0,65.2,35.9,98.2,99999999999993.0,8097,8259,,58000608.28,63776528.12,73.63,15.24,4319802,FERNANDO DA ROSA PAHIM,1174.225,Centro Local (5),Arranjo Populacional de Santa Maria/RS - Capital Regional C (2C),Não pertence,Pampa,Santa Maria,Santa Maria,Centro Ocidental Rio-grandense,Santa Maria,6.26,6.89,1234.0,2.2
4311106,4311106,JAGUARI,RIO GRANDE DO SUL,VILA,-54.6257857955687,-29.4000051420037,168.799642,0.712,6,5.0,6.5,,918,389,76,72,5,3,35381.69,18.2,90.1,33.8,32.7,97.0,99999999999993.0,10579,10779,18.9,63191366.67,65430854.04,75.98,19.35,4311106,IGOR ROSA TAMBARA,675.108,Centro Local (5),Arranjo Populacional de Santa Maria/RS - Capital Regional C (2C),Não pertence,Mata Atlântica,Santa Maria,Santa Maria,Centro Ocidental Rio-grandense,Santa Maria,3.23,15.67,2047.0,2.2
4312104,4312104,MATA,RIO GRANDE DO SUL,VILA,-54.3512990930375,-29.5563474853445,114.220447,0.656,4,4.9,6.9,,443,93,45,10,5,1,35505.31,31.9,96.0,46.1,36.1,97.9,99999999999993.0,4698,4786,21.3,33744826.79,37990137.45,80.37,16.67,4312104,SANDRO SAVEGNAGO,316.121,Centro Local (5),Arranjo Populacional de Santa Maria/RS - Capital Regional C (2C),Não pertence,Mata Atlântica,Santa Maria,Santa Maria,Centro Ocidental Rio-grandense,Santa Maria,3.25,14.86,783.0,2.1
4313037,4313037,NOVA ESPERANÇA DO SUL,RIO GRANDE DO SUL,CIDADE,-54.8358729018542,-29.4045957086276,326.047627,0.735,3,4.7,6.6,20.0,529,121,53,20,3,1,31539.73,42.3,82.6,16.2,25.3,100.0,99999999999993.0,4865,4974,,34580869.74,43077545.32,75.53,37.7,4313037,IVORI ANTONIO GUASSO JUNIOR,191.772,Centro Local (5),Santiago - Centro Subregional B (3B),Não pertence,Pampa,Santa Maria,Santiago,Centro Ocidental Rio-grandense,Santa Maria,1.59,25.47,1834.0,1.7
4317400,4317400,SANTIAGO,RIO GRANDE DO SUL,VILA,-54.8301256933115,-28.9365350187867,263.389062,0.766,25,5.1,6.2,11.28,4917,1430,386,154,26,7,41004.58,41.4,85.4,73.2,30.5,98.9,99999999999993.0,48938,50331,2.0,239947133.8,262684022.78,62.1,22.07,4317400,MARCELO GORSKI DE MATOS,2413.419,Centro Subregional B (3B),Arranjo Populacional de Santa Maria/RS - Capital Regional C (2C),Não pertence,Pampa,Santa Maria,Santiago,Centro Ocidental Rio-grandense,Santiago,16.94,20.27,10799.0,2.2
4304655,4304655,CAPÃO DO CIPÓ,RIO GRANDE DO SUL,POVOADO,-54.4816611565099,-29.0170601532714,346.452394,0.672,2,5.0,,,477,88,41,11,4,1,172220.01,0.0,84.2,36.9,40.5,98.9,99999999999993.0,3119,3186,,39334953.42,47474121.77,86.63,14.75,4304655,ADAIR FRACARO CARDOSO,1007.796,Centro Local (5),Santiago - Centro Subregional B (3B),Não pertence,Pampa,Santa Maria,Santiago,Centro Ocidental Rio-grandense,Santiago,1.19,3.09,460.0,3.6
4311502,4311502,LAVRAS DO SUL,RIO GRANDE DO SUL,VILA,-54.2598823493867,-30.7876470199693,194.86476,0.699,7,4.1,5.6,13.33,811,250,68,24,7,1,67155.99,11.4,72.7,64.4,34.4,98.5,99999999999993.0,7157,7294,,61767467.59,74319254.58,64.2,18.5,4311502,RENAN LEAL DELABARY,2600.969,Centro Local (5),Arranjo Populacional de Bagé/RS - Centro Subregional A (3A),Não pertence,Pampa,Santa Maria,São Gabriel - Caçapava do Sul,Sudoeste Rio-grandense,Campanha Meridional,3.35,2.75,1324.0,2.1
4316972,4316972,SANTA MARGARIDA DO SUL,RIO GRANDE DO SUL,VILA,-54.0124104557795,-30.3011717408882,105.57671,0.663,1,4.5,,,296,47,29,8,2,1,139226.56,0.0,85.6,39.4,37.9,99.0,99999999999993.0,2596,2658,,28090862.88,36242748.71,90.91,15.6,4316972,LUIZ FELIPE BRENNER MACHADO,955.299,Centro Subregional B (3B) - Município integrante do Arranjo Populacional de São Gabriel/RS,Arranjo Populacional de Santa Maria/RS - Capital Regional C (2C),Não pertence,Pampa,Santa Maria,São Gabriel - Caçapava do Sul,Sudoeste Rio-grandense,Campanha Central,0.65,2.72,405.0,2.6
4323457,4323457,VILA NOVA DO SUL,RIO GRANDE DO SUL,CIDADE,-53.879196483097,-30.333958689168,257.489039,0.662,2,4.6,5.2,,436,135,40,15,2,1,45844.94,4.8,91.8,46.8,37.9,96.1,99999999999993.0,3863,3935,,34172023.71,41636033.94,77.48,18.87,4323457,JOSÉ LUIZ CAMARGO DE MOURA,508.278,Centro Local (5),Arranjo Populacional de São Gabriel/RS - Centro Subregional B (3B),Não pertence,Pampa,Santa Maria,São Gabriel - Caçapava do Sul,Centro Ocidental Rio-grandense,Santa Maria,1.67,7.6,729.0,2.3
4317004,4317004,SANTANA DA BOA VISTA,RIO GRANDE DO SUL,CIDADE,-53.1158749986991,-30.8747025739616,281.300562,0.633,8,3.5,5.0,,732,210,70,25,8,1,45402.39,12.8,48.9,35.1,42.6,98.5,99999999999993.0,7024,7140,,43331440.95,56093992.17,70.88,14.11,4317004,GARLENO ALVES DA SILVA,1418.805,Centro Local (5),Arranjo Populacional de Pelotas/RS - Capital Regional C (2C),Não pertence,Pampa,Santa Maria,São Gabriel - Caçapava do Sul,Sudeste Rio-grandense,Serras de Sudeste,1.96,4.95,991.0,1.9
4302808,4302808,CAÇAPAVA DO SUL,RIO GRANDE DO SUL,VILA,-53.4013081621861,-30.3669401975013,164.858588,0.704,14,4.7,5.7,7.07,3744,1077,252,106,23,6,33536.47,17.5,84.5,51.2,34.5,99.0,99999999999993.0,32515,33508,3.1,205939729.9,182345777.2,71.2,23.48,4302808,MARCELO CORDERO SPODE,3048.147,Centro de Zona A (4A),Arranjo Populacional de Santa Maria/RS - Capital Regional C (2C),Não pertence,Pampa,Santa Maria,São Gabriel - Caçapava do Sul,Sudeste Rio-grandense,Serras de Sudeste,11.54,10.67,7633.0,2.5
4319604,4319604,SÃO SEPÉ,RIO GRANDE DO SUL,VILA,-53.306077123173,-30.0822241275447,86.061907,0.708,16,4.9,6.1,4.39,2159,597,180,67,17,4,56671.05,18.1,93.6,77.8,34.4,97.3,99999999999993.0,21219,21575,37.7,135991816.6,152327874.54,67.05,21.82,4319604,MARCELO FARIA ELLWANGER,2204.779,Centro Local (5),Arranjo Populacional de Santa Maria/RS - Capital Regional C (2C),Não pertence,Pampa,Santa Maria,Santa Maria,Centro Ocidental Rio-grandense,Santa Maria,8.73,9.62,4629.0,2.1
4306379,4306379,DILERMANDO DE AGUIAR,RIO GRANDE DO SUL,CIDADE,-54.2135603845021,-29.7019639097539,108.986827,0.648,3,3.5,,,317,78,36,14,3,1,89569.01,0.0,66.2,81.3,40.2,94.1,99999999999993.0,2806,2859,,34340191.19,40030912.91,77.74,15.32,4306379,JORGE ALBERTO PEREIRA SAIDELLES,600.518,Centro Local (5),Arranjo Populacional de Santa Maria/RS - Capital Regional C (2C),Não pertence,Pampa,Santa Maria,Santa Maria,Centro Ocidental Rio-grandense,Santa Maria,1.18,4.67,430.0,2.5
4319406,4319406,SÃO PEDRO DO SUL,RIO GRANDE DO SUL,VILA,-54.1447539313385,-29.5406325430096,211.817597,0.709,7,5.1,6.5,,1546,351,125,34,9,1,33059.31,9.5,84.3,46.9,33.9,97.2,99999999999993.0,15577,15870,6.4,93782572.01,92655357.18,74.67,17.96,4319406,FERNANDO PILAR CEZAR,873.394,Centro de Zona B (4B),Arranjo Populacional de Santa Maria/RS - Capital Regional C (2C),Não pertence,Pampa,Santa Maria,Santa Maria,Centro Ocidental Rio-grandense,Santa Maria,6.09,17.84,2797.0,2.0
4316907,4316907,SANTA MARIA,RIO GRANDE DO SUL,LUGAREJO,-53.7823034585663,-29.7675131120327,79.075723,0.784,68,4.6,5.8,10.36,29698,8480,1742,877,109,42,33532.26,49.1,83.3,82.8,30.5,98.1,13980.0,271735,282244,7.4,1237029894.0,1174042470.21,51.29,33.03,4316907,RODRIGO DECIMO,1780.194,Capital Regional C (2C) - Município integrante do Arranjo Populacional de Santa Maria/RS,Arranjo Populacional de Porto Alegre/RS - Metrópole (1C),Não pertence,Pampa,Santa Maria,Santa Maria,Centro Ocidental Rio-grandense,Santa Maria,80.04,152.64,89765.0,3.1
4319125,4319125,SÃO MARTINHO DA SERRA,RIO GRANDE DO SUL,CIDADE,-53.8542256318643,-29.5348505683156,446.421058,0.652,1,3.5,5.9,,337,85,31,13,3,1,104119.72,20.5,65.0,3.4,39.8,99.8,99999999999993.0,2860,2911,,32855776.99,35527896.7,87.82,13.53,4319125,ROBSON FLORES DA TRINDADE,669.547,Centro Local (5),Arranjo Populacional de Santa Maria/RS - Capital Regional C (2C),Não pertence,Pampa,Santa Maria,Santa Maria,Centro Ocidental Rio-grandense,Santa Maria,1.4,4.27,387.0,2.6
4310538,4310538,ITAARA,RIO GRANDE DO SUL,CIDADE,-53.7578492490045,-29.6028879547439,437.046869,0.76,1,4.6,5.5,18.52,578,170,32,13,2,1,51436.88,1.4,49.0,54.8,32.4,99.1,99999999999993.0,5572,5706,,29379484.21,39068406.66,71.86,30.17,4310538,SANDRO ROBERTO GALARÇA FERIGOLLO,172.801,Capital Regional C (2C) - Município integrante do Arranjo Populacional de Santa Maria/RS,Arranjo Populacional de Porto Alegre/RS - Metrópole (1C),Não pertence,Mata Atlântica,Santa Maria,Santa Maria,Centro Ocidental Rio-grandense,Santa Maria,6.41,32.25,1681.0,2.3
4321493,4321493,TOROPI,RIO GRANDE DO SUL,VILA,-54.3267626949327,-29.4713546739814,144.952012,0.683,1,5.2,,100.0,253,75,28,13,4,1,36808.11,10.4,7.0,0.5,36.6,98.0,99999999999993.0,2554,2598,,28460253.99,32703011.72,78.89,13.23,4321493,VANDIR OESTERREICH,198.316,Centro Local (5),São Pedro do Sul - Centro de Zona B (4B),Não pertence,Mata Atlântica,Santa Maria,Santa Maria,Centro Ocidental Rio-grandense,Santa Maria,1.21,12.88,338.0,2.5
4311130,4311130,JARI,RIO GRANDE DO SUL,CIDADE,-54.219935820282,-29.2900810968405,428.456448,0.631,2,4.7,6.8,37.04,365,77,38,11,4,1,135082.01,2.3,91.1,10.0,45.7,96.0,99999999999993.0,3349,3414,,35137107.42,39352532.25,80.7,11.65,4311130,OSNEI DOS SANTOS AZEREDO,853.08,Centro Local (5),Arranjo Populacional de Santa Maria/RS - Capital Regional C (2C),Não pertence,Pampa,Santa Maria,Santa Maria,Centro Ocidental Rio-grandense,Santiago,0.85,3.93,390.0,2.4
4315321,4315321,QUEVEDOS,RIO GRANDE DO SUL,CIDADE,-54.0712547223508,-29.3519213499725,419.618407,0.665,3,,5.4,,271,68,32,11,4,1,107161.62,18.1,55.1,11.0,40.1,96.4,99999999999993.0,2507,2555,,31594887.04,37167706.39,75.27,13.52,4315321,TAÍS FABIANE DA MAIA FLORES ROSA,543.359,Centro Local (5),Arranjo Populacional de Santa Maria/RS - Capital Regional C (2C),Não pertence,Pampa,Santa Maria,Santa Maria,Centro Ocidental Rio-grandense,Santiago,0.76,4.61,339.0,3.2
4311205,4311205,JÚLIO DE CASTILHOS,RIO GRANDE DO SUL,AUI,-53.6838465792415,-29.4866985720777,500.284409,0.716,10,4.2,5.5,11.83,2206,787,171,100,17,3,100483.88,30.2,91.0,47.3,34.7,97.3,99999999999993.0,18226,18557,65.8,115634245.2,128065876.89,75.06,21.57,4311205,BERNARDO QUATRIN DALLA CORTE,1929.544,Centro Local (5),Arranjo Populacional de Santa Maria/RS - Capital Regional C (2C),Não pertence,Pampa,Santa Maria,Santa Maria,Centro Ocidental Rio-grandense,Santiago,9.77,9.45,3932.0,2.5
4322202,4322202,TUPANCIRETÃ,RIO GRANDE DO SUL,VILA,-54.2864128330066,-28.9735611219651,430.139534,0.709,10,4.2,6.0,4.39,2452,620,203,41,17,2,84856.89,12.6,77.5,44.1,34.2,97.9,99999999999993.0,20005,20345,110.0,139392265.4,169044241.25,71.01,19.55,4322202,GUSTAVO HERTER TERRA,2253.234,Centro Local (5),Arranjo Populacional de Santa Maria/RS - Capital Regional C (2C),Não pertence,Pampa,Passo Fundo,Cruz Alta,Centro Ocidental Rio-grandense,Santiago,7.77,8.88,3910.0,2.6
4308409,4308409,FORMIGUEIRO,RIO GRANDE DO SUL,CIDADE,-53.5002944149445,-29.9976338154204,123.164908,0.682,5,4.6,5.9,,693,193,48,17,5,1,46095.12,22.2,99.7,16.4,36.1,95.6,99999999999993.0,6413,6533,,41126372.38,49313583.72,76.56,13.19,4308409,CRISTIANO CEZAR CASSOL RUBERT,578.875,Centro Local (5),Arranjo Populacional de Santa Maria/RS - Capital Regional C (2C),Não pertence,Pampa,Santa Maria,Santa Maria,Centro Ocidental Rio-grandense,Restinga Seca,5.1,11.08,846.0,2.4
4315503,4315503,RESTINGA SECA,RIO GRANDE DO SUL,AUI,-53.3822013112665,-29.8380425456075,94.319689,0.683,12,4.9,5.8,14.08,1510,386,99,26,9,1,42887.51,54.9,96.3,40.6,35.2,97.6,99999999999993.0,14939,15213,60.2,87841465.31,100118351.7,71.54,22.39,4315503,NORTON SOARES DA ROSA,968.62,Centro Local (5),Arranjo Populacional de Santa Maria/RS - Capital Regional C (2C),Não pertence,Pampa,Santa Maria,Santa Maria,Centro Ocidental Rio-grandense,Restinga Seca,11.12,15.42,3345.0,2.0
4320651,4320651,SILVEIRA MARTINS,RIO GRANDE DO SUL,CIDADE,-53.5852374736119,-29.6452500585474,433.416889,0.742,1,,,,245,60,28,15,2,1,36630.0,41.4,85.9,43.3,28.7,99.2,99999999999993.0,2028,2060,,27426511.04,31866106.45,75.46,23.03,4320651,SADI TOLFO,119.285,Centro Local (5),Arranjo Populacional de Santa Maria/RS - Capital Regional C (2C),Não pertence,Mata Atlântica,Santa Maria,Santa Maria,Centro Ocidental Rio-grandense,Restinga Seca,1.65,17.0,467.0,2.2
4310751,4310751,IVORÁ,RIO GRANDE DO SUL,CIDADE,-53.5808856194398,-29.5195344843337,168.908176,0.724,2,4.4,6.1,,152,64,22,15,2,1,38786.64,4.0,86.9,75.3,29.1,97.1,99999999999993.0,1929,1964,,23070691.3,14077809.88,55.65,12.23,4310751,JOSEMAR ZORZI OSMARI,122.93,Centro Local (5),Arranjo Populacional de Santa Maria/RS - Capital Regional C (2C),Não pertence,Mata Atlântica,Santa Maria,Santa Maria,Centro Ocidental Rio-grandense,Restinga Seca,0.78,15.69,236.0,3.0
4318432,4318432,SÃO JOÃO DO POLÊSINE,RIO GRANDE DO SUL,AUI,-53.4577116277911,-29.6196410103107,77.060885,0.748,3,,6.0,38.46,310,107,34,15,4,1,41347.83,39.2,88.8,5.6,27.1,99.0,99999999999993.0,2649,2707,,27419462.97,32192276.53,74.6,33.75,4318432,JAQUELINE MARIA SCHMITZ MILANESI,78.32,Centro Local (5),Arranjo Populacional de Santa Maria/RS - Capital Regional C (2C),Não pertence,Mata Atlântica,Santa Maria,Santa Maria,Centro Ocidental Rio-grandense,Restinga Seca,2.24,33.82,894.0,2.4
4308003,4308003,FAXINAL DO SOTURNO,RIO GRANDE DO SUL,AUI,-53.4860202886496,-29.5856664342769,70.578946,0.72,4,4.7,6.6,14.08,629,136,58,19,5,1,40611.12,42.6,97.2,69.2,30.1,99.1,99999999999993.0,6702,6846,29.8,42728799.96,50758550.7,70.95,34.0,4308003,LOURENÇO DOMINGOS MORO,169.514,Centro Local (5),Arranjo Populacional de Santa Maria/RS - Capital Regional C (2C),Não pertence,Mata Atlântica,Santa Maria,Santa Maria,Centro Ocidental Rio-grandense,Restinga Seca,4.3,39.54,2279.0,2.2
4306700,4306700,DONA FRANCISCA,RIO GRANDE DO SUL,CIDADE,-53.362333180785,-29.6248524913473,49.968409,0.697,3,4.5,6.0,,299,92,29,15,3,1,36036.35,45.1,99.6,53.6,36.9,97.6,99999999999993.0,3079,3136,,27949489.52,29986940.76,83.22,16.04,4306700,SAUL ANTONIO DAL FORNO RECK,114.149,Centro Local (5),Arranjo Populacional de Santa Maria/RS - Capital Regional C (2C),Não pertence,Mata Atlântica,Santa Maria,Santa Maria,Centro Ocidental Rio-grandense,Restinga Seca,2.19,26.97,494.0,2.3
4300109,4300109,AGUDO,RIO GRANDE DO SUL,CIDADE,-53.2586916877151,-29.6456633632496,65.793788,0.694,7,4.7,6.3,27.03,1610,397,124,33,10,2,40863.53,27.1,89.5,68.1,25.5,96.5,99999999999993.0,16041,16346,,100404279.4,106678562.78,71.64,21.65,4300109,LUIS HENRIQUE KITTEL,534.624,Centro de Zona B (4B),Arranjo Populacional de Santa Maria/RS - Capital Regional C (2C),Não pertence,Mata Atlântica,Santa Maria,Santa Maria,Centro Ocidental Rio-grandense,Restinga Seca,12.4,30.0,3473.0,2.1
4314027,4314027,PARAÍSO DO SUL,RIO GRANDE DO SUL,AUI,-53.1418757388147,-29.672611624891,88.448062,0.676,3,5.0,6.1,19.23,584,167,57,20,8,1,27162.33,8.7,99.3,38.5,28.8,99.2,99999999999993.0,6519,6635,122.7,40196617.3,47719557.18,74.1,14.66,4314027,CLAITON CLEO MULLER,337.534,Centro Local (5),Agudo - Centro de Zona B (4B),Não pertence,Mata Atlântica,Santa Maria,Cachoeira do Sul,Centro Oriental Rio-grandense,Cachoeira do Sul,2.85,19.31,956.0,2.3
4311239,4311239,LAGOA BONITA DO SUL,RIO GRANDE DO SUL,CIDADE,-53.0169831807835,-29.4941314004424,590.266333,0.67,1,6.0,,,205,88,34,13,3,1,23448.31,31.5,40.0,27.9,30.8,97.9,99999999999993.0,2251,2287,,24525013.02,27087518.67,92.05,12.48,4311239,LUIZ FRANCISCO FAGUNDES,109.758,Centro Local (5),Sobradinho - Centro de Zona A (4A),Não pertence,Mata Atlântica,Santa Cruz do Sul - Lajeado,Sobradinho,Centro Oriental Rio-grandense,Santa Cruz do Sul,0.78,20.51,281.0,2.2
4313102,4313102,NOVA PALMA,RIO GRANDE DO SUL,VILA,-53.299630643316,-29.471893414181,74.337522,0.744,6,5.3,6.6,20.83,495,157,54,19,6,1,58703.35,67.7,99.7,57.3,34.0,97.9,99999999999993.0,5586,5683,,36271400.65,47311666.39,74.24,23.06,4313102,JUCEMARA ROSSATO,314.613,Centro Local (5),Arranjo Populacional de Santa Maria/RS - Capital Regional C (2C),Não pertence,Mata Atlântica,Santa Maria,Santa Maria,Centro Ocidental Rio-grandense,Restinga Seca,3.03,17.76,1288.0,2.5
4314472,4314472,PINHAL GRANDE,RIO GRANDE DO SUL,VILA,-53.3011856136265,-29.2512287862584,352.558785,0.678,5,4.2,6.0,,397,92,43,15,6,1,216252.56,31.0,81.9,65.5,41.0,97.6,99999999999993.0,3805,3867,26.3,42288410.02,52229630.91,76.19,15.16,4314472,LUCAS MICHELON,478.11,Centro Local (5),Arranjo Populacional de Santa Maria/RS - Capital Regional C (2C),Não pertence,Pampa,Santa Maria,Santa Maria,Centro Ocidental Rio-grandense,Santiago,1.79,7.96,577.0,3.2
4309753,4309753,IBARAMA,RIO GRANDE DO SUL,CIDADE,-53.1332000129437,-29.4207443610837,321.878999,0.652,2,5.2,,32.26,401,131,43,20,3,1,25546.56,70.8,92.4,18.9,28.7,97.7,99999999999993.0,3732,3793,,27053100.35,32626030.4,92.76,12.41,4309753,VALMOR NERI MATTANA,195.426,Centro Local (5),Sobradinho - Centro de Zona A (4A),Não pertence,Mata Atlântica,Santa Cruz do Sul - Lajeado,Sobradinho,Centro Oriental Rio-grandense,Santa Cruz do Sul,0.91,19.1,463.0,2.2
4307815,4307815,ESTRELA VELHA,RIO GRANDE DO SUL,VILA,-53.1865545256642,-29.213788702806,361.267028,0.679,3,4.7,6.3,22.22,318,99,37,14,4,1,54145.31,12.5,74.4,11.8,39.4,100.0,99999999999993.0,3070,3120,,31575221.21,33762523.33,91.39,18.31,4307815,ALEXANDER CASTILHOS,281.613,Centro Local (5),Arroio do Tigre - Centro de Zona B (4B),Não pertence,Mata Atlântica,Santa Cruz do Sul - Lajeado,Sobradinho,Centro Oriental Rio-grandense,Santa Cruz do Sul,1.32,10.9,562.0,2.8
4301206,4301206,ARROIO DO TIGRE,RIO GRANDE DO SUL,VILA,-52.9494096570806,-29.1899313682188,406.660169,0.707,11,4.7,6.4,,1307,391,113,42,11,2,31911.3,37.4,88.1,48.0,31.9,98.2,99999999999993.0,12058,12296,24.9,54118092.11,64816169.46,85.02,21.58,4301206,VANDERLEI HERMES,315.132,Centro de Zona B (4B),Sobradinho - Centro de Zona A (4A),Não pertence,Mata Atlântica,Santa Cruz do Sul - Lajeado,Sobradinho,Centro Oriental Rio-grandense,Santa Cruz do Sul,4.41,38.26,2602.0,1.8
4320701,4320701,SOBRADINHO,RIO GRANDE DO SUL,CIDADE,-53.0251679436161,-29.4147731341294,368.076194,0.743,13,5.2,6.4,,1435,436,128,37,11,1,29163.04,44.7,89.1,73.5,28.8,97.6,99999999999993.0,14226,14512,168.7,76711482.46,82191825.3,73.31,28.01,4320701,LUIZ AFFONSO TREVISAN,128.823,Centro de Zona A (4A),Arranjo Populacional de Santa Cruz do Sul/RS - Capital Regional C (2C),Não pertence,Mata Atlântica,Santa Cruz do Sul - Lajeado,Sobradinho,Centro Oriental Rio-grandense,Santa Cruz do Sul,5.0,110.43,3985.0,1.9
4320263,4320263,SEGREDO,RIO GRANDE DO SUL,VILA,-52.9276544526496,-29.2732506331854,434.326336,0.659,6,,6.5,15.15,669,188,71,20,7,1,21846.87,55.3,79.6,8.2,38.4,98.5,99999999999993.0,6009,6107,99.9,37086123.67,42784390.77,77.9,10.73,4320263,CLAUDIO ANTONIO TREVISAN,245.17,Centro Local (5),Sobradinho - Centro de Zona A (4A),Não pertence,Mata Atlântica,Santa Cruz do Sul - Lajeado,Sobradinho,Centro Oriental Rio-grandense,Santa Cruz do Sul,1.59,24.51,645.0,2.4
4316451,4316451,SALTO DO JACUÍ,RIO GRANDE DO SUL,AUI,-53.1942590097974,-29.0172736380473,302.879184,0.687,13,4.0,5.9,,1208,268,98,38,13,2,96983.27,23.5,80.8,35.7,36.4,96.3,99999999999993.0,10203,10373,,78127153.52,86438995.7,69.91,20.15,4316451,RONALDO OLIMPIO PEREIRA DE MORAES,507.698,Centro de Zona B (4B),Cruz Alta - Centro Subregional A (3A),Não pertence,Pampa,Passo Fundo,Cruz Alta,Noroeste Rio-grandense,Cruz Alta,5.53,20.1,2056.0,2.8
4310876,4310876,JACUIZINHO,RIO GRANDE DO SUL,POVOADO,-52.9841946834812,-28.9838806895268,509.924042,0.662,1,4.9,5.4,86.96,259,95,27,13,3,1,82423.05,4.5,93.3,3.3,43.5,98.1,99999999999993.0,2040,2070,,25560301.91,30051698.54,93.73,16.52,4310876,DINIZ JOSE FERNANDES,339.399,Centro Local (5),Salto do Jacuí - Centro de Zona B (4B),Não pertence,Mata Atlântica,Passo Fundo,Cruz Alta,Noroeste Rio-grandense,Cruz Alta,0.74,6.01,337.0,2.3
4304101,4304101,CAMPOS BORGES,RIO GRANDE DO SUL,VILA,-52.9651828007952,-28.8705114533899,466.88083,0.708,2,5.2,5.8,,384,103,37,15,2,1,45853.46,14.8,79.1,13.6,31.7,97.3,99999999999993.0,3613,3693,,32974077.06,42348030.66,75.65,21.34,4304101,CLEONICE PASQUALOTTO DA PAIXÃO TOLEDO,226.202,Centro Local (5),Espumoso - Centro de Zona B (4B),Não pertence,Mata Atlântica,Passo Fundo,Passo Fundo,Noroeste Rio-grandense,Cruz Alta,1.83,15.97,771.0,2.2
4318002,4318002,SÃO BORJA,RIO GRANDE DO SUL,VILA,-55.5920147717995,-28.4064567405734,104.286401,0.736,23,4.6,6.1,7.55,6495,1887,505,233,34,11,43012.23,12.4,96.7,62.2,37.0,97.5,99999999999993.0,59676,61323,92.2,329450953.2,354968681.13,73.63,22.67,4318002,JOSÉ LUIZ RODRIGUES MACHADO,3616.674,Centro Subregional B (3B),Uruguaiana - Centro Subregional A (3A),Não pertence,Pampa,Uruguaiana,São Borja,Sudoeste Rio-grandense,Campanha Ocidental,18.78,16.5,13528.0,2.2
4308656,4308656,GARRUCHOS,RIO GRANDE DO SUL,POVOADO,-55.5133339720081,-28.2543443611532,148.212601,0.671,3,5.6,6.4,,287,87,33,14,3,1,70489.57,0.0,91.0,5.8,41.3,98.3,99999999999993.0,2688,2729,,31529485.08,41674663.43,72.83,13.95,4308656,ROLAND SCHATZ,803.97,Centro Local (5),São Luiz Gonzaga - Centro Subregional B (3B),Não pertence,Pampa,Ijuí,São Luiz Gonzaga,Sudoeste Rio-grandense,Campanha Ocidental,1.63,3.34,375.0,3.9
4310553,4310553,ITACURUBI,RIO GRANDE DO SUL,CIDADE,-55.2327232640516,-28.802205033087,165.803751,0.657,2,4.7,5.2,76.92,350,95,32,13,4,1,71263.11,9.3,96.6,27.2,42.0,96.3,99999999999993.0,2995,3042,,32929054.13,38143595.61,89.23,13.52,4310553,GELSO DOS SANTOS SOARES,1120.249,Centro Local (5),Santiago - Centro Subregional B (3B),Não pertence,Pampa,Santa Maria,Santiago,Centro Ocidental Rio-grandense,Santiago,0.77,2.67,405.0,2.4
4317707,4317707,SANTO ANTÔNIO DAS MISSÕES,RIO GRANDE DO SUL,AUI,-55.3299550056807,-28.4916385724719,137.084092,0.686,11,4.1,5.9,,1096,280,109,44,14,3,67869.46,3.3,96.9,11.6,36.7,97.3,99999999999993.0,10300,10493,,81329991.78,77274805.53,81.52,14.53,4317707,FELISBERTO DOS SANTOS FERREIRA,1710.466,Centro Local (5),São Luiz Gonzaga - Centro Subregional B (3B),Não pertence,Pampa,Ijuí,São Luiz Gonzaga,Noroeste Rio-grandense,Santo Ângelo,4.53,6.02,1497.0,2.2
4302501,4302501,BOSSOROCA,RIO GRANDE DO SUL,VILA,-55.0438581714016,-28.4946288323784,148.092033,0.692,11,4.5,5.8,16.13,647,155,77,27,9,2,79966.92,6.1,91.8,25.7,38.7,96.9,99999999999993.0,5890,5988,,56974647.32,59731514.66,76.68,17.25,4302501,JOAO ALBERTO OURIQUE DO NASCIMENTO,1610.056,Centro Local (5),São Luiz Gonzaga - Centro Subregional B (3B),Não pertence,Pampa,Ijuí,São Luiz Gonzaga,Noroeste Rio-grandense,Santo Ângelo,2.15,3.66,1016.0,2.6
4318903,4318903,SÃO LUIZ GONZAGA,RIO GRANDE DO SUL,VILA,-54.5937422423749,-28.4493892925049,291.372265,0.741,19,5.0,6.3,23.97,3856,1255,277,117,27,7,57474.25,5.4,98.3,57.6,32.8,98.8,99999999999993.0,34752,35858,,171963193.8,184059820.86,71.21,24.07,4318903,JOSÉ ANTÔNIO FLACH WERLE,1296.773,Centro Subregional B (3B),Ijuí - Centro Subregional A (3A)\; Arranjo Populacional de Santo Ângelo/RS - Centro Subregional A (3A),Não pertence,Pampa,Ijuí,São Luiz Gonzaga,Noroeste Rio-grandense,Santo Ângelo,15.02,26.82,8364.0,2.2
4319208,4319208,SÃO NICOLAU,RIO GRANDE DO SUL,VILA,-55.4092905651877,-28.0671672541289,88.963366,0.645,8,4.9,6.2,,585,158,50,23,6,2,44254.79,0.4,88.1,24.5,39.7,96.8,99999999999993.0,5118,5248,,44239536.74,47287772.74,84.49,11.68,4319208,RAFAEL GODOIS DA SILVA,497.446,Centro Local (5),São Luiz Gonzaga - Centro Subregional B (3B),Não pertence,Pampa,Ijuí,São Luiz Gonzaga,Noroeste Rio-grandense,Santo Ângelo,2.94,10.54,598.0,2.0
4314555,4314555,PIRAPÓ,RIO GRANDE DO SUL,VILA,-55.3396898513002,-28.0042943137294,116.723971,0.669,3,5.7,6.7,,197,61,27,13,4,1,42934.46,10.4,78.1,34.3,42.8,97.9,99999999999993.0,2260,2260,,27795367.91,31307879.04,77.91,12.92,4314555,LAURI LUIZ SCHEEREN,281.794,Centro Local (5),São Luiz Gonzaga - Centro Subregional B (3B),Não pertence,Pampa,Ijuí,São Luiz Gonzaga,Noroeste Rio-grandense,Santo Ângelo,0.88,7.69,292.0,2.3
4306353,4306353,DEZESSEIS DE NOVEMBRO,RIO GRANDE DO SUL,CIDADE,-55.0482085020399,-28.2268764434985,178.073698,0.654,1,,,,228,44,32,10,5,1,24527.63,16.3,91.2,19.3,42.7,98.8,99999999999993.0,2507,2544,,24142903.17,28079006.89,82.78,9.25,4306353,JOHNNI RAMAO LOMBALDO BOCACIO,216.341,Centro Local (5),São Luiz Gonzaga - Centro Subregional B (3B),Não pertence,Mata Atlântica,Ijuí,São Luiz Gonzaga,Noroeste Rio-grandense,Santo Ângelo,0.88,11.53,232.0,2.5
4316303,4316303,ROQUE GONZALES,RIO GRANDE DO SUL,VILA,-54.9385922129284,-28.1042882281015,192.740623,0.688,9,5.3,,,637,129,73,15,8,1,64744.41,12.2,93.5,25.7,36.2,97.8,99999999999993.0,6576,6698,365.0,49704842.71,52364884.69,76.38,15.86,4316303,FERNANDO MATTES MACHRY,349.084,Centro Local (5),São Luiz Gonzaga - Centro Subregional B (3B),Não pertence,Mata Atlântica,Ijuí,Cerro Largo,Noroeste Rio-grandense,Cerro Largo,2.8,18.84,1043.0,2.3
4319307,4319307,SÃO PAULO DAS MISSÕES,RIO GRANDE DO SUL,VILA,-54.9979822395905,-28.0001218189862,169.692257,0.692,6,5.0,6.9,16.13,512,125,46,14,3,1,35470.0,17.4,100.0,14.2,32.4,98.5,99999999999993.0,5846,5948,17.1,45643483.62,46010401.6,77.5,15.1,4319307,OBERDAN LUIS RHODEN,222.504,Centro Local (5),Santa Rosa - Centro Subregional A (3A),Não pertence,Mata Atlântica,Ijuí,Cerro Largo,Noroeste Rio-grandense,Cerro Largo,2.05,26.1,883.0,2.2
4315107,4315107,PORTO XAVIER,RIO GRANDE DO SUL,VILA,-55.2313780872424,-27.947550604608,142.486347,0.723,10,5.6,7.7,,1069,332,101,47,9,3,20793.08,0.6,91.8,49.3,35.0,99.5,99999999999993.0,9938,10132,,62667837.63,69044993.82,77.64,21.59,4315107,GILBERTO DOMINGOS MENIN,281.497,Centro Local (5),Santa Rosa - Centro Subregional A (3A)\; Arranjo Populacional de Santo Ângelo/RS - Centro Subregional A (3A),Não pertence,Mata Atlântica,Ijuí,Cerro Largo,Noroeste Rio-grandense,Cerro Largo,3.81,35.3,2146.0,2.1
4315008,4315008,PORTO LUCENA,RIO GRANDE DO SUL,CIDADE,-55.0115620452524,-27.8513751159726,96.2134,0.693,7,5.4,6.5,,344,77,31,12,3,1,30053.37,9.3,99.5,13.0,32.1,97.5,99999999999993.0,4360,4424,22.9,33328205.04,38351340.22,81.24,16.1,4315008,IURY SOMMER ZABOLOTSKY,250.876,Centro Local (5),Santa Rosa - Centro Subregional A (3A),Não pertence,Mata Atlântica,Ijuí,Santa Rosa,Noroeste Rio-grandense,Santa Rosa,1.76,17.38,702.0,2.1
4315073,4315073,PORTO VERA CRUZ,RIO GRANDE DO SUL,CIDADE,-54.8990318240447,-27.7343739194085,108.249975,0.69,1,,,,126,29,15,10,3,1,35939.08,1.1,100.0,29.2,35.3,100.0,99999999999993.0,1560,1585,,27921527.57,29825891.2,74.86,14.42,4315073,JAIME DOMINGOS TAFFAREL,114.284,Centro Local (5),Santo Cristo - Centro de Zona B (4B),Não pertence,Mata Atlântica,Ijuí,Santa Rosa,Noroeste Rio-grandense,Santa Rosa,0.32,13.65,225.0,2.7
4303301,4303301,CAIBATÉ,RIO GRANDE DO SUL,CIDADE,-54.6378867042087,-28.2910748191668,289.088609,0.719,7,4.4,5.8,23.81,476,121,47,21,6,1,55167.67,16.7,98.9,22.7,34.3,98.1,99999999999993.0,4704,4797,,42867504.65,44581863.33,77.83,26.4,4303301,DANIEL SEFFRIN HERTHER,261.28,Centro Local (5),Arranjo Populacional de Santo Ângelo/RS - Centro Subregional A (3A),Não pertence,Pampa,Ijuí,São Luiz Gonzaga,Noroeste Rio-grandense,Cerro Largo,1.87,18.0,1242.0,2.8
4319158,4319158,SÃO MIGUEL DAS MISSÕES,RIO GRANDE DO SUL,VILA,-54.5301276101661,-28.4382797250243,274.985305,0.667,8,5.2,6.3,,791,218,76,21,10,1,112835.1,7.3,76.5,28.4,37.4,97.2,99999999999993.0,7056,7196,,66852980.34,78935548.32,73.67,19.57,4319158,LUIZ RODRIGO RIBAS,1228.91,Centro Local (5),Arranjo Populacional de Santo Ângelo/RS - Centro Subregional A (3A),Não pertence,Pampa,Ijuí,Santo Ângelo,Noroeste Rio-grandense,Santo Ângelo,2.95,5.74,1381.0,2.3
4323754,4323754,VITÓRIA DAS MISSÕES,RIO GRANDE DO SUL,VILA,-54.4013555966066,-28.3714934970491,249.273857,0.655,2,6.0,6.8,30.3,321,106,36,12,4,1,52269.64,21.6,80.8,26.6,39.6,100.0,99999999999993.0,3260,3318,,32426055.86,39558134.48,82.92,12.55,4323754,CORNÉLIO LUIS GRIMM,258.454,Centro Local (5),Arranjo Populacional de Santo Ângelo/RS - Centro Subregional A (3A),Não pertence,Mata Atlântica,Ijuí,Santo Ângelo,Noroeste Rio-grandense,Santo Ângelo,0.95,12.62,409.0,2.2
4306932,4306932,ENTRE-IJUÍS,RIO GRANDE DO SUL,CIDADE,-54.2714318511947,-28.3627942778995,243.764927,0.68,3,4.4,6.2,10.2,885,227,68,24,6,1,82344.41,10.9,97.3,13.6,34.0,99.2,99999999999993.0,9158,9364,,60555933.94,67906767.15,70.06,17.56,4306932,BRASIL ANTONIO SARTORI,553.915,Centro Subregional A (3A) - Município integrante do Arranjo Populacional de Santo Ângelo/RS,Arranjo Populacional de Porto Alegre/RS - Metrópole (1C),Não pertence,Pampa,Ijuí,Santo Ângelo,Noroeste Rio-grandense,Santo Ângelo,3.6,16.56,1608.0,2.3
4317509,4317509,SANTO ÂNGELO,RIO GRANDE DO SUL,VILA,-54.2137772681694,-28.1642430938789,385.850746,0.772,37,4.7,5.8,6.42,8853,2639,580,285,45,15,41012.36,9.6,90.5,29.3,29.0,99.0,99999999999993.0,76917,79130,,366428741.4,384674248.42,64.67,33.26,4317509,NIVIO BOELTER BRAZ,678.502,Centro Subregional A (3A) - Município integrante do Arranjo Populacional de Santo Ângelo/RS,Arranjo Populacional de Porto Alegre/RS - Metrópole (1C),Não pertence,Pampa,Ijuí,Santo Ângelo,Noroeste Rio-grandense,Santo Ângelo,26.47,113.22,25581.0,2.3
4315958,4315958,ROLADOR,RIO GRANDE DO SUL,VILA,-54.7880426613839,-28.2388349168077,196.685344,0.689,8,5.2,,,224,69,33,7,5,1,71327.05,15.6,96.3,61.1,37.8,98.5,99999999999993.0,2291,2332,,28950844.92,34749997.4,81.15,10.74,4315958,JOÃO ALBERTO AQUINO GOMES,295.201,Centro Local (5),São Luiz Gonzaga - Centro Subregional B (3B),Não pertence,Mata Atlântica,Ijuí,São Luiz Gonzaga,Noroeste Rio-grandense,Santo Ângelo,1.08,7.76,246.0,3.2
4319372,4319372,SÃO PEDRO DO BUTIÁ,RIO GRANDE DO SUL,VILA,-54.8862609190099,-28.073730663755,180.250805,0.763,1,6.5,7.0,,284,97,29,12,2,1,54801.17,15.9,93.5,31.0,25.5,100.0,99999999999993.0,3070,3139,,36114825.63,41873741.06,72.25,26.51,4319372,NARCISO LUIS LENZ,107.394,Centro Local (5),Arranjo Populacional de Cerro Largo/RS - Centro Subregional B (3B),Não pertence,Mata Atlântica,Ijuí,Cerro Largo,Noroeste Rio-grandense,Cerro Largo,1.65,28.54,814.0,2.4
4316477,4316477,SALVADOR DAS MISSÕES,RIO GRANDE DO SUL,VILA,-54.8446311749121,-28.0762342920278,199.334067,0.753,4,5.1,6.7,,274,55,29,9,2,1,65277.41,27.0,74.5,44.0,24.5,100.0,99999999999993.0,2877,2953,,36032859.73,39251171.56,79.68,31.14,4316477,VILSON JOSÉ SCHONS,95.952,Centro Subregional B (3B) - Município integrante do Arranjo Populacional de Cerro Largo/RS,Arranjo Populacional de Santo Ângelo/RS - Centro Subregional A (3A),Não pertence,Mata Atlântica,Ijuí,Cerro Largo,Noroeste Rio-grandense,Cerro Largo,1.73,30.51,896.0,2.7
4305207,4305207,CERRO LARGO,RIO GRANDE DO SUL,AUI,-54.7073190534028,-28.0779580630754,187.830045,0.764,5,5.4,6.4,14.49,1439,404,97,32,8,2,55941.51,18.9,95.6,40.8,26.3,98.2,99999999999993.0,13705,14009,80.3,82113279.31,87615092.63,69.27,30.8,4305207,PROTÁSIO PEDRO BUTZEN,176.742,Centro Subregional B (3B) - Município integrante do Arranjo Populacional de Cerro Largo/RS,Arranjo Populacional de Santo Ângelo/RS - Centro Subregional A (3A),Não pertence,Mata Atlântica,Ijuí,Cerro Largo,Noroeste Rio-grandense,Cerro Largo,5.65,77.59,4221.0,2.3
4303707,4303707,CAMPINA DAS MISSÕES,RIO GRANDE DO SUL,CIDADE,-54.8453289508288,-27.9916900284003,143.876523,0.738,3,6.0,7.1,20.83,518,185,47,24,5,2,44914.25,19.3,99.2,37.1,33.5,98.5,99999999999993.0,5882,6001,68.0,42082298.32,43911962.48,82.83,19.31,4303707,CARLOS JUSTEN,224.792,Centro Local (5),Santa Rosa - Centro Subregional A (3A),Não pertence,Mata Atlântica,Ijuí,Santa Rosa,Noroeste Rio-grandense,Cerro Largo,2.1,26.17,1136.0,2.1
4312179,4312179,MATO QUEIMADO,RIO GRANDE DO SUL,CIDADE,-54.6168368777268,-28.2558159870127,217.403388,0.717,4,4.8,,66.67,180,41,24,9,3,1,54901.02,11.7,82.7,32.3,30.4,99.2,99999999999993.0,1795,1833,,23562194.65,27840315.99,88.23,13.65,4312179,MAURO JOSÉ HARTMANN,114.653,Centro Local (5),Arranjo Populacional de Santo Ângelo/RS - Centro Subregional A (3A),Não pertence,Mata Atlântica,Ijuí,Cerro Largo,Noroeste Rio-grandense,Cerro Largo,0.75,15.66,245.0,2.5
4322343,4322343,UBIRETAMA,RIO GRANDE DO SUL,CIDADE,-54.6845107762281,-28.0435647657328,229.772682,0.7,1,4.7,7.7,,171,49,16,11,2,1,56727.23,10.9,47.9,13.3,30.5,99.3,99999999999993.0,1994,2028,,28559516.17,34254215.43,80.43,13.34,4322343,RODRIGO DANIEL BLOCH,125.876,Centro Local (5),Arranjo Populacional de Cerro Largo/RS - Centro Subregional B (3B)\; Santa Rosa - Centro Subregional A (3A),Não pertence,Mata Atlântica,Ijuí,Cerro Largo,Noroeste Rio-grandense,Santo Ângelo,0.53,15.84,266.0,2.8
4304309,4304309,CÂNDIDO GODÓI,RIO GRANDE DO SUL,CIDADE,-54.7528340428941,-27.951318068101,319.931616,0.728,7,5.9,7.2,,580,190,47,21,4,1,58702.31,45.0,95.1,16.7,29.1,99.1,99999999999993.0,6294,6421,15.9,42346243.57,47330580.94,77.76,26.09,4304309,GUERINO BACKES,247.047,Centro Local (5),Santa Rosa - Centro Subregional A (3A),Não pertence,Mata Atlântica,Ijuí,Santa Rosa,Noroeste Rio-grandense,Santa Rosa,1.79,25.48,1642.0,2.5
4300307,4300307,ALECRIM,RIO GRANDE DO SUL,LUGAREJO,-54.8367233993312,-27.6067877419256,102.318853,0.672,7,5.0,6.6,,568,121,42,11,5,1,28383.93,2.1,90.0,13.9,38.2,97.1,99999999999993.0,6123,6228,,37054319.71,36298981.2,82.11,12.41,4300307,NEUSA LEDUR KUHN,316.394,Centro Local (5),Santa Rosa - Centro Subregional A (3A),Não pertence,Mata Atlântica,Ijuí,Santa Rosa,Noroeste Rio-grandense,Santa Rosa,2.02,19.35,760.0,2.2
4317905,4317905,SANTO CRISTO,RIO GRANDE DO SUL,VILA,-54.7327155912152,-27.7383717710989,334.838225,0.738,12,5.3,6.4,6.49,1389,265,118,28,7,1,55305.62,29.2,97.6,36.9,28.7,99.8,99999999999993.0,15320,15656,,92224167.08,99838740.11,70.07,29.37,4317905,CHARLES THIELE,367.202,Centro de Zona B (4B),Santa Rosa - Centro Subregional A (3A),Não pertence,Mata Atlântica,Ijuí,Santa Rosa,Noroeste Rio-grandense,Santa Rosa,5.47,41.72,4500.0,2.3
4309506,4309506,GUARANI DAS MISSÕES,RIO GRANDE DO SUL,VILA,-54.5252392564479,-28.2370865862596,197.439741,0.737,5,5.4,6.4,,677,494,57,48,7,2,49049.53,13.0,99.2,3.8,33.7,97.8,99999999999993.0,7415,7553,,50294277.06,48010296.53,79.37,20.39,4309506,LEANDRO INACIO WASTOWSKI,289.516,Centro Local (5),Arranjo Populacional de Santo Ângelo/RS - Centro Subregional A (3A),Não pertence,Mata Atlântica,Ijuí,Santo Ângelo,Noroeste Rio-grandense,Cerro Largo,2.6,25.51,1512.0,2.2
4320578,4320578,SETE DE SETEMBRO,RIO GRANDE DO SUL,CIDADE,-54.4636861823155,-28.1304163233711,266.635159,0.683,1,5.4,,,169,57,20,9,4,1,54712.96,22.5,59.8,22.3,40.2,99.1,99999999999993.0,1830,1884,,24676949.31,31622683.27,78.49,16.01,4320578,NELSON PALINSKI,131.66,Centro Local (5),Arranjo Populacional de Santo Ângelo/RS - Centro Subregional A (3A),Não pertence,Mata Atlântica,Ijuí,Santo Ângelo,Noroeste Rio-grandense,Cerro Largo,0.55,14.16,293.0,2.9
4320321,4320321,SENADOR SALGADO FILHO,RIO GRANDE DO SUL,VILA,-54.5032573659803,-28.0101086777448,391.873383,0.693,3,4.7,,38.46,236,70,20,12,2,1,53987.11,10.4,67.0,44.1,38.2,96.9,99999999999993.0,2673,2726,,26510611.8,32028724.94,87.79,16.05,4320321,HUGO JONAS NESKE,147.097,Centro Local (5),Santa Rosa - Centro Subregional A (3A),Não pertence,Pampa,Ijuí,Santa Rosa,Noroeste Rio-grandense,Santo Ângelo,1.12,18.18,429.0,2.5
4309001,4309001,GIRUÁ,RIO GRANDE DO SUL,VILA,-54.24835720165,-28.0771706957944,433.342377,0.721,13,4.7,6.1,12.82,1740,311,135,23,16,1,76479.16,8.7,99.5,14.1,34.4,98.2,99999999999993.0,16013,16282,118.7,114296291.5,127974083.51,77.79,23.86,4309001,DARI PAULO PRESTES TABORDA,855.56,Centro Local (5),Arranjo Populacional de Santo Ângelo/RS - Centro Subregional A (3A),Não pertence,Pampa,Ijuí,Santo Ângelo,Noroeste Rio-grandense,Santo Ângelo,5.84,18.68,3821.0,2.2
4317202,4317202,SANTA ROSA,RIO GRANDE DO SUL,VILA,-54.5806653894228,-27.904722302875,288.863782,0.769,38,5.3,6.5,11.17,8821,2814,537,277,33,14,50513.48,26.9,97.2,37.3,27.1,98.6,99999999999993.0,76963,79395,15.6,543179937.3,589726461.8,63.56,40.88,4317202,ANDERSON MANTEI,489.38,Centro Subregional A (3A),Arranjo Populacional de Porto Alegre/RS - Metrópole (1C),Não pertence,Mata Atlântica,Ijuí,Santa Rosa,Noroeste Rio-grandense,Santa Rosa,26.79,157.27,31460.0,2.5
4322301,4322301,TUPARENDI,RIO GRANDE DO SUL,VILA,-54.5595112698078,-27.7751602399055,306.92761,0.728,8,4.4,6.3,,686,111,54,16,4,1,49616.17,6.5,99.5,15.2,29.1,99.7,99999999999993.0,8363,8536,239.1,47381265.85,57547968.02,77.33,20.54,4322301,JÚLIO CÉSAR MATTIAZZI,307.71,Centro Local (5),Santa Rosa - Centro Subregional A (3A),Não pertence,Mata Atlântica,Ijuí,Santa Rosa,Noroeste Rio-grandense,Santa Rosa,3.29,27.18,1718.0,2.3
4315057,4315057,PORTO MAUÁ,RIO GRANDE DO SUL,CIDADE,-54.671951891498,-27.5786353600571,220.584526,0.698,2,4.0,7.2,,201,41,19,9,2,1,38314.42,7.4,92.6,54.0,37.0,100.0,99999999999993.0,2142,2176,,25673417.8,34458060.62,77.01,16.01,4315057,CARLOS CESAR DINON,105.811,Centro Local (5),Santa Rosa - Centro Subregional A (3A),Não pertence,Mata Atlântica,Ijuí,Santa Rosa,Noroeste Rio-grandense,Santa Rosa,1.06,20.24,343.0,2.3
4313425,4313425,NOVO MACHADO,RIO GRANDE DO SUL,VILA,-54.4886461366303,-27.507877612138,185.058924,0.663,4,4.7,6.5,,281,69,22,11,3,1,58399.67,6.0,93.7,9.6,37.8,97.6,99999999999993.0,3198,3246,,29234733.93,38848972.4,81.29,12.85,4313425,VALDECI NATALINO DALLENOGARE,218.836,Centro Local (5),Tucunduva - Centro de Zona B (4B),Não pertence,Mata Atlântica,Ijuí,Santa Rosa,Noroeste Rio-grandense,Santa Rosa,2.04,14.61,411.0,2.7
4322103,4322103,TUCUNDUVA,RIO GRANDE DO SUL,CIDADE,-54.4331286688342,-27.6500599333578,232.342571,0.747,3,5.7,6.5,,445,111,33,13,3,1,46209.93,16.5,98.1,7.4,28.8,100.0,99999999999993.0,5542,5649,,41694298.82,48205937.84,73.36,22.39,4322103,JONAS FERNANDO HAUSCHILD,181.198,Centro de Zona B (4B),Santa Rosa - Centro Subregional A (3A),Não pertence,Mata Atlântica,Ijuí,Santa Rosa,Noroeste Rio-grandense,Santa Rosa,2.37,30.59,1241.0,2.2
4306734,4306734,DOUTOR MAURÍCIO CARDOSO,RIO GRANDE DO SUL,LUGAREJO,-54.4178076940604,-27.4114982495048,126.018778,0.706,4,5.5,6.6,,392,83,22,14,1,1,59542.4,19.0,89.4,5.2,32.8,97.3,99999999999993.0,4470,4542,,41009166.48,52037722.26,72.85,15.35,4306734,LAURI JOSÉ ELY,255.731,Centro Local (5),Horizontina - Centro de Zona B (4B),Não pertence,Mata Atlântica,Ijuí,Três de Maio,Noroeste Rio-grandense,Três Passos,2.26,17.48,686.0,2.5
4309605,4309605,HORIZONTINA,RIO GRANDE DO SUL,AUI,-54.2330550429907,-27.5204686365026,147.019398,0.783,10,5.6,7.3,4.83,1988,520,114,48,8,2,134124.88,19.3,98.7,49.8,25.7,97.6,19.0,18851,19246,5.3,185549250.3,212368443.54,65.13,43.06,4309605,JONES JEHN DA CUNHA,229.694,Centro de Zona B (4B),Santa Rosa - Centro Subregional A (3A),Não pertence,Mata Atlântica,Ijuí,Três de Maio,Noroeste Rio-grandense,Três Passos,8.26,82.07,8118.0,3.5
4311155,4311155,JÓIA,RIO GRANDE DO SUL,CIDADE,-54.1159648970211,-28.645623534628,338.427127,0.686,10,4.6,6.2,,816,199,79,29,11,2,113803.19,15.9,98.1,41.5,38.0,96.6,99999999999993.0,7184,7305,,60804565.43,71653047.98,70.26,12.78,4311155,DIONEI DE MATOS LEWANDOWSKI,1238.709,Centro Local (5),Ijuí - Centro Subregional A (3A),Não pertence,Pampa,Ijuí,Ijuí,Noroeste Rio-grandense,Cruz Alta,1.79,5.8,918.0,2.8
4307831,4307831,EUGÊNIO DE CASTRO,RIO GRANDE DO SUL,CIDADE,-54.1481126184862,-28.5250597626107,319.492636,0.712,1,3.9,6.3,,250,42,27,9,3,1,175516.28,16.6,90.5,11.6,34.9,99.2,99999999999993.0,2633,2685,,34849435.06,42106547.57,77.82,16.64,4307831,JOSE FERNANDO DE LIMA MACHADO,417.821,Centro Local (5),Arranjo Populacional de Santo Ângelo/RS - Centro Subregional A (3A),Não pertence,Pampa,Ijuí,Santo Ângelo,Noroeste Rio-grandense,Santo Ângelo,1.19,6.3,438.0,2.8
4301503,4301503,AUGUSTO PESTANA,RIO GRANDE DO SUL,VILA,-53.9546628203851,-28.5614887849015,338.450659,0.743,3,5.3,7.3,11.9,685,125,63,17,6,1,77033.28,11.7,93.2,30.5,23.1,99.7,99999999999993.0,7149,7302,,46536831.62,53018544.89,81.46,24.53,4301503,SERGIO LUIS NEUBERGER,348.219,Centro Local (5),Ijuí - Centro Subregional A (3A),Não pertence,Pampa,Ijuí,Ijuí,Noroeste Rio-grandense,Ijuí,1.98,20.53,1754.0,2.4
4305871,4305871,CORONEL BARROS,RIO GRANDE DO SUL,CIDADE,-54.0736624302888,-28.3845408586763,297.22736,0.744,1,5.4,6.9,,277,43,24,10,1,1,89696.56,11.1,97.3,68.0,24.8,98.6,99999999999993.0,2822,2892,,37721998.85,46084223.32,71.05,23.49,4305871,BRÁULIO SCHERER,163.716,Centro Local (5),Ijuí - Centro Subregional A (3A),Não pertence,Mata Atlântica,Ijuí,Ijuí,Noroeste Rio-grandense,Ijuí,1.4,17.24,663.0,2.9
4302220,4302220,BOA VISTA DO CADEADO,RIO GRANDE DO SUL,VILA,-53.7767306113811,-28.4953073301231,431.372246,0.703,2,5.2,6.4,47.62,214,45,21,7,2,1,190085.27,0.0,85.3,23.5,32.0,100.0,99999999999993.0,2229,2271,,38772450.67,43512015.61,90.54,17.32,4302220,JOAO PAULO BELTRAO DOS SANTOS,701.221,Centro Local (5),Cruz Alta - Centro Subregional A (3A),Não pertence,Pampa,Passo Fundo,Cruz Alta,Noroeste Rio-grandense,Cruz Alta,0.62,3.18,386.0,3.1
4310207,4310207,IJUÍ,RIO GRANDE DO SUL,VILA,-53.8522964503742,-28.1677560458897,322.810665,0.781,53,5.5,6.6,9.28,9450,2915,631,250,41,14,61760.07,17.7,98.1,57.5,28.3,98.9,99999999999993.0,84780,87775,20.1,614054336.1,656582995.3,43.49,38.96,4310207,ANDREI COSSETIN SCZMANSKI,688.982,Centro Subregional A (3A),Arranjo Populacional de Porto Alegre/RS - Metrópole (1C),Não pertence,Mata Atlântica,Ijuí,Ijuí,Noroeste Rio-grandense,Ijuí,26.18,123.05,33033.0,2.6
4302584,4302584,BOZANO,RIO GRANDE DO SUL,POVOADO,-53.71280583679,-28.3931008557364,461.795401,0.745,2,6.1,,,171,52,22,11,3,1,108341.64,9.4,48.0,47.9,25.0,100.0,99999999999993.0,2151,2195,,23132073.05,29667692.89,90.76,13.58,4302584,GEDERSON MORI,200.497,Centro Local (5),Ijuí - Centro Subregional A (3A),Não pertence,Mata Atlântica,Ijuí,Ijuí,Noroeste Rio-grandense,Ijuí,0.96,10.73,292.0,3.0
4314308,4314308,PEJUÇARA,RIO GRANDE DO SUL,CIDADE,-53.6565423317737,-28.4215860641583,461.909944,0.741,4,5.6,6.4,,389,86,38,16,2,1,120888.24,2.9,98.2,8.0,32.1,100.0,99999999999993.0,3745,3819,267.0,44506668.0,51808374.64,79.09,20.32,4314308,FLAVIANA BRANDEMBURG BASSO,414.106,Centro Local (5),Ijuí - Centro Subregional A (3A),Não pertence,Mata Atlântica,Ijuí,Ijuí,Noroeste Rio-grandense,Ijuí,1.9,9.04,761.0,2.5
4305009,4305009,CATUÍPE,RIO GRANDE DO SUL,VILA,-54.022639479428,-28.1608864219006,325.749644,0.739,2,5.9,7.3,,898,256,82,35,8,2,73932.28,3.8,99.2,18.3,29.1,99.5,99999999999993.0,8674,8840,,52367634.18,58408242.36,86.37,17.81,4305009,PAULO ROBERTO DALLA CORTE,583.18,Centro Local (5),Ijuí - Centro Subregional A (3A),Não pertence,Mata Atlântica,Ijuí,Ijuí,Noroeste Rio-grandense,Santo Ângelo,3.83,14.87,1545.0,2.1
4310405,4310405,INDEPENDÊNCIA,RIO GRANDE DO SUL,AUI,-54.1691860080122,-27.8379486836125,353.948366,0.693,5,4.3,6.0,,641,155,43,15,4,1,81626.01,17.9,91.9,12.5,31.9,98.9,99999999999993.0,6427,6558,,47987386.29,56738091.54,74.74,20.43,4310405,EDUARDO MAAHS MARASCA,358.284,Centro Local (5),Três de Maio - Centro Subregional B (3B),Não pertence,Pampa,Ijuí,Três de Maio,Noroeste Rio-grandense,Santa Rosa,3.03,17.94,1313.0,2.6
4321808,4321808,TRÊS DE MAIO,RIO GRANDE DO SUL,VILA,-54.2280500847332,-27.6442561913833,204.268521,0.759,16,4.9,6.5,13.94,2709,690,205,83,16,4,56767.21,21.6,95.8,17.9,27.2,98.8,99999999999993.0,24916,25452,48.2,148794245.5,164325001.46,67.2,34.18,4321808,MARCOS VINICIUS BENEDETTI CORSO,421.461,Centro Subregional B (3B),Santa Rosa - Centro Subregional A (3A),Não pertence,Mata Atlântica,Ijuí,Três de Maio,Noroeste Rio-grandense,Santa Rosa,9.2,59.12,8517.0,2.3
4318499,4318499,SÃO JOSÉ DO INHACORÁ,RIO GRANDE DO SUL,CIDADE,-54.133550202739,-27.722584567332,204.908414,0.747,4,5.9,,,211,52,18,4,2,1,90094.6,38.4,96.1,72.1,21.4,99.5,99999999999993.0,2406,2463,,28595562.03,36624227.11,74.93,42.52,4318499,ADEMIR JOSÉ SCHNEIDER,77.732,Centro Local (5),Três de Maio - Centro Subregional B (3B),Não pertence,Mata Atlântica,Ijuí,Três de Maio,Noroeste Rio-grandense,Santa Rosa,1.21,30.95,1023.0,2.7
4302204,4302204,BOA VISTA DO BURICÁ,RIO GRANDE DO SUL,AUI,-54.1301055043432,-27.6490817249304,227.822637,0.762,4,5.3,6.5,,659,144,48,15,4,1,48701.61,27.8,99.4,8.4,20.9,99.6,99999999999993.0,6966,7125,14.4,51107327.38,62331600.06,71.94,38.0,4302204,JOÃO RUDINEI SEHNEM,109.541,Centro de Zona B (4B),Três de Maio - Centro Subregional B (3B),Não pertence,Mata Atlântica,Ijuí,Três de Maio,Noroeste Rio-grandense,Três Passos,3.36,63.59,2647.0,1.9
4310413,4310413,INHACORÁ,RIO GRANDE DO SUL,CIDADE,-54.012545591408,-27.8804544583429,398.484614,0.673,2,4.5,5.6,38.46,217,67,21,12,1,1,50093.22,22.0,90.3,36.4,37.4,98.8,99999999999993.0,2014,2049,,24594744.45,28542287.74,92.41,16.63,4310413,EMERSON CAVALI DE VARGAS,113.749,Centro Local (5),Chiapetta - Centro de Zona B (4B),Não pertence,Pampa,Ijuí,Ijuí,Noroeste Rio-grandense,Ijuí,0.92,17.71,335.0,2.1
4300455,4300455,ALEGRIA,RIO GRANDE DO SUL,LUGAREJO,-54.1439705294164,-27.8383609812355,223.706281,0.695,3,5.5,6.5,,337,97,39,17,4,1,47648.88,3.3,92.9,11.7,36.5,98.9,99999999999993.0,3651,3711,,32676240.31,37963066.51,79.02,15.75,4300455,FABIO LUCIANO SCHAKOFSKI,172.794,Centro Local (5),Três de Maio - Centro Subregional B (3B),Não pertence,Mata Atlântica,Ijuí,Três de Maio,Noroeste Rio-grandense,Ijuí,1.47,21.13,575.0,2.4
4305405,4305405,CHIAPETTA,RIO GRANDE DO SUL,CIDADE,-53.9457497023822,-27.9173647540078,471.750345,0.732,5,,6.6,,448,96,44,20,4,1,105546.96,11.4,99.4,13.2,32.2,97.5,99999999999993.0,3913,3992,,37931528.27,44744249.79,89.47,25.38,4305405,OSMAR KUHN,397.179,Centro de Zona B (4B),Ijuí - Centro Subregional A (3A),Não pertence,Pampa,Ijuí,Ijuí,Noroeste Rio-grandense,Ijuí,1.64,9.85,993.0,1.9
4319737,4319737,SÃO VALÉRIO DO SUL,RIO GRANDE DO SUL,ALDEIA INDÍGENA,-53.8887839601825,-27.8671176767491,424.420431,0.642,3,4.0,5.5,54.05,414,145,27,29,3,2,33099.83,16.0,65.2,12.3,42.1,94.3,99999999999993.0,2543,2594,,25635091.67,32597832.92,81.45,11.52,4319737,CLOVIS TABORDA PADILHA,107.402,Centro Local (5),Santo Augusto - Centro de Zona B (4B),Não pertence,Mata Atlântica,Ijuí,Ijuí,Noroeste Rio-grandense,Ijuí,1.13,23.68,293.0,2.2
4319109,4319109,SÃO MARTINHO,RIO GRANDE DO SUL,AUI,-53.9470913535166,-27.720649281902,454.273173,0.726,3,5.8,6.3,,553,88,47,14,4,1,66347.14,13.6,98.8,18.3,28.1,99.1,99999999999993.0,5481,5589,164.2,45399526.4,52698310.42,78.34,30.72,4319109,JEANCARLO HUNHOFF,171.245,Centro Local (5),Santo Augusto - Centro de Zona B (4B)\; Três de Maio - Centro Subregional B (3B),Não pertence,Mata Atlântica,Ijuí,Três Passos,Noroeste Rio-grandense,Três Passos,2.63,32.01,1684.0,1.9
4300208,4300208,AJURICABA,RIO GRANDE DO SUL,AUI,-53.7251927491151,-28.1922097044366,393.307274,0.753,4,5.3,6.8,17.24,684,146,65,21,7,1,74961.71,13.0,95.5,17.4,30.1,98.5,99999999999993.0,6720,6848,,50769209.93,53776613.08,79.98,24.46,4300208,PAULO CLAUDIO DOLOVITSCH,322.674,Centro Local (5),Ijuí - Centro Subregional A (3A),Não pertence,Mata Atlântica,Ijuí,Ijuí,Noroeste Rio-grandense,Ijuí,2.51,20.83,1644.0,2.3
4313334,4313334,NOVA RAMADA,RIO GRANDE DO SUL,CIDADE,-53.7069373378916,-28.0826448724052,462.85133,0.742,1,4.7,5.9,,214,49,23,9,2,1,138805.04,0.0,88.8,4.5,31.6,98.6,99999999999993.0,2163,2201,,30697391.76,37004827.17,87.39,16.97,4313334,ALZEVIR LOTARIO DE MARCHI,255.264,Centro Local (5),Ijuí - Centro Subregional A (3A),Não pertence,Pampa,Ijuí,Ijuí,Noroeste Rio-grandense,Ijuí,0.76,8.47,367.0,3.0
4317806,4317806,SANTO AUGUSTO,RIO GRANDE DO SUL,VILA,-53.8642297721849,-27.8892394465866,467.052373,0.739,7,4.9,6.6,17.44,1620,709,133,91,11,3,61423.02,16.4,92.9,8.6,32.6,97.7,99999999999993.0,13902,14196,,88489399.81,107264238.57,73.0,30.38,4317806,LILIAN FONTOURA DEPIERE,467.775,Centro de Zona B (4B),Ijuí - Centro Subregional A (3A),Não pertence,Pampa,Ijuí,Ijuí,Noroeste Rio-grandense,Ijuí,5.54,29.72,4223.0,2.0
4304002,4304002,CAMPO NOVO,RIO GRANDE DO SUL,VILA,-53.7793801102711,-27.7109357635106,420.015642,0.703,2,4.0,6.4,13.7,536,117,43,17,5,1,76231.72,4.6,54.7,10.5,37.7,98.6,99999999999993.0,4975,5068,381.9,36958289.81,40451928.39,87.83,31.64,4304002,PEDRO DOS SANTOS,220.719,Centro Local (5),Três Passos - Centro Subregional B (3B),Não pertence,Mata Atlântica,Ijuí,Três Passos,Noroeste Rio-grandense,Três Passos,2.63,22.54,1574.0,2.3
4305900,4305900,CORONEL BICACO,RIO GRANDE DO SUL,AUI,-53.7127307239031,-27.753992785757,514.035869,0.665,7,3.8,5.6,,878,131,65,23,8,1,71419.97,6.8,76.1,3.7,38.9,97.2,99999999999993.0,6144,6230,,49566369.26,62819343.13,77.67,19.61,4305900,ARLEU VALADAR MACHADO,492.303,Centro Local (5),Santo Augusto - Centro de Zona B (4B),Não pertence,Pampa,Ijuí,Ijuí,Noroeste Rio-grandense,Ijuí,3.15,12.48,1205.0,2.1
4315404,4315404,REDENTORA,RIO GRANDE DO SUL,VILA,-53.6244462145635,-27.4965154544601,457.745728,0.631,15,3.8,5.9,10.58,1481,441,115,53,15,3,19767.66,4.9,83.1,10.6,46.3,93.5,99999999999993.0,9738,9934,,46999262.03,59590760.1,79.95,8.19,4315404,MALBERK ANTOINE KUNST DULLIUS,303.705,Centro Local (5),Ijuí - Centro Subregional A (3A)\; Tenente Portela - Centro de Zona B (4B),Não pertence,Mata Atlântica,Ijuí,Três Passos,Noroeste Rio-grandense,Três Passos,3.19,32.06,798.0,2.1
4306106,4306106,CRUZ ALTA,RIO GRANDE DO SUL,VILA,-53.2888268441017,-28.6907149026084,453.83408,0.75,32,4.4,5.6,8.61,7199,1847,418,178,38,10,77389.3,6.7,90.1,36.3,31.1,97.2,99999999999993.0,58913,60486,44.1,301502726.3,339968236.83,70.65,28.74,4306106,PAULA RUBIN FACCO LIBRELOTTO,1360.548,Centro Subregional A (3A),Arranjo Populacional de Porto Alegre/RS - Metrópole (1C),Não pertence,Pampa,Passo Fundo,Cruz Alta,Noroeste Rio-grandense,Cruz Alta,26.3,43.3,16932.0,2.5
4302238,4302238,BOA VISTA DO INCRA,RIO GRANDE DO SUL,CIDADE,-53.3887049606029,-28.8184880340187,422.210615,0.731,1,,6.0,24.39,293,59,22,7,2,1,146184.34,0.0,94.4,2.7,33.5,99.0,99999999999993.0,2271,2315,,33393266.93,41900140.17,83.81,23.16,4302238,GILMAR LAURINDO BELLINI,504.114,Centro Local (5),Cruz Alta - Centro Subregional A (3A),Não pertence,Pampa,Passo Fundo,Cruz Alta,Noroeste Rio-grandense,Cruz Alta,0.78,4.5,526.0,2.5
4313904,4313904,PANAMBI,RIO GRANDE DO SUL,CIDADE,-53.5002651674452,-28.2927305369249,418.525126,0.761,25,5.4,6.6,10.08,5161,1452,333,179,20,6,71052.72,47.0,85.7,59.6,26.9,99.1,99999999999993.0,43515,45042,29.9,244836206.9,303995021.1,58.06,42.64,4313904,GUSTAVO CAVALHEIRO,491.57,Centro de Zona A (4A),Ijuí - Centro Subregional A (3A),Não pertence,Mata Atlântica,Ijuí,Ijuí,Noroeste Rio-grandense,Ijuí,15.9,88.52,18554.0,3.2
4308458,4308458,FORTALEZA DOS VALOS,RIO GRANDE DO SUL,AUI,-53.2293878975644,-28.8494434966923,405.803492,0.756,7,5.6,6.9,,487,103,42,13,5,1,132824.77,15.2,94.0,9.5,33.1,99.7,99999999999993.0,4477,4569,,50169514.34,58722018.08,76.91,21.67,4308458,PAULO CEZAR MARANGON,650.512,Centro Local (5),Cruz Alta - Centro Subregional A (3A),Não pertence,Pampa,Passo Fundo,Cruz Alta,Noroeste Rio-grandense,Cruz Alta,2.49,6.88,970.0,2.5
4315354,4315354,QUINZE DE NOVEMBRO,RIO GRANDE DO SUL,AUI,-53.1060993548284,-28.8039842256512,346.235983,0.756,4,5.6,7.1,47.62,471,110,41,13,5,1,66960.55,20.3,98.2,15.8,20.8,100.0,99999999999993.0,3910,4000,,38991331.14,45578253.13,77.09,29.69,4315354,MARCOS LUIS PETRI,223.072,Centro Local (5),Ibirubá - Centro de Zona A (4A),Não pertence,Mata Atlântica,Passo Fundo,Cruz Alta,Noroeste Rio-grandense,Cruz Alta,2.64,17.53,1161.0,2.5
4300554,4300554,ALTO ALEGRE,RIO GRANDE DO SUL,VILA,-52.9507735823793,-28.7705967041404,378.363749,0.747,1,5.4,6.7,,150,43,24,11,2,1,66755.15,17.3,98.5,19.9,33.3,98.1,99999999999993.0,1800,1837,,30510909.2,32611029.17,82.19,23.94,4300554,SILMAR DEMAMAN,115.335,Centro Local (5),Espumoso - Centro de Zona B (4B),Não pertence,Mata Atlântica,Passo Fundo,Passo Fundo,Noroeste Rio-grandense,Cruz Alta,0.97,15.61,431.0,2.4
4310009,4310009,IBIRUBÁ,RIO GRANDE DO SUL,VILA,-53.173311143198,-28.5488432594334,358.960092,0.765,11,5.1,6.8,12.05,2328,742,143,97,12,4,84109.24,22.5,98.0,20.3,23.9,99.0,99999999999993.0,21583,22082,,128152285.3,155394285.49,70.16,44.74,4310009,JAQUELINE BRIGNONI WINSCH,607.185,Centro de Zona A (4A),Cruz Alta - Centro Subregional A (3A)\; Passo Fundo - Capital Regional B (2B),Não pertence,Mata Atlântica,Passo Fundo,Cruz Alta,Noroeste Rio-grandense,Cruz Alta,7.3,35.55,9657.0,2.6
4316709,4316709,SANTA BÁRBARA DO SUL,RIO GRANDE DO SUL,VILA,-53.2553601415404,-28.5153616571007,469.572792,0.725,7,4.5,6.5,11.36,876,194,77,22,7,1,171000.57,18.6,50.5,28.1,34.6,99.5,99999999999993.0,8122,8275,,77834529.41,86242320.77,73.04,25.61,4316709,LEANDRO CARAFFINI VENERAL,975.799,Centro Local (5),Passo Fundo - Capital Regional B (2B),Não pertence,Pampa,Passo Fundo,Cruz Alta,Noroeste Rio-grandense,Cruz Alta,4.1,8.32,2080.0,2.8
4305603,4305603,COLORADO,RIO GRANDE DO SUL,VILA,-52.9632732399254,-28.4317786884369,528.774156,0.758,4,5.6,7.3,,288,51,33,13,3,1,109506.71,23.1,76.8,3.5,31.5,99.2,99999999999993.0,3258,3319,,40604384.83,41934734.85,80.22,22.01,4305603,RODRIGO SARTORI,286.295,Centro Local (5),Passo Fundo - Capital Regional B (2B),Não pertence,Mata Atlântica,Passo Fundo,Carazinho,Noroeste Rio-grandense,Não-Me-Toque,1.97,11.38,717.0,2.7
4316436,4316436,SALDANHA MARINHO,RIO GRANDE DO SUL,VILA,-53.1117485230277,-28.4803549310813,431.344969,0.762,2,5.7,6.3,,267,53,30,13,2,1,97938.15,13.0,97.9,7.6,25.9,100.0,99999999999993.0,2575,2621,,36920556.41,41934234.29,78.76,21.36,4316436,VOLMAR TELLES DO AMARAL,221.554,Centro Local (5),Carazinho - Centro Subregional A (3A),Não pertence,Mata Atlântica,Passo Fundo,Carazinho,Noroeste Rio-grandense,Cruz Alta,2.0,11.62,550.0,2.6
4305702,4305702,CONDOR,RIO GRANDE DO SUL,CIDADE,-53.4889433308529,-28.2052957752937,469.84723,0.747,6,5.0,6.2,,800,154,61,21,6,1,92330.04,29.3,86.6,26.8,32.4,98.3,99999999999993.0,6406,6539,31.2,60350572.82,67867328.95,75.42,39.32,4305702,RÔMULO TEIXEIRA CARVALHO,463.568,Centro Local (5),Panambi - Centro de Zona A (4A),Não pertence,Pampa,Ijuí,Ijuí,Noroeste Rio-grandense,Ijuí,2.07,13.82,2519.0,2.5
4306429,4306429,DOIS IRMÃOS DAS MISSÕES,RIO GRANDE DO SUL,CIDADE,-53.5308646235229,-27.6575367314489,528.182987,0.67,1,4.7,5.8,,299,120,35,15,4,1,99996.91,13.8,35.9,8.6,41.8,96.0,99999999999993.0,2090,2133,,26930833.37,31269681.53,92.05,15.74,4306429,MAURO PROCÓPIO FORTES DE QUADROS,226.072,Centro Local (5),Erval Seco - Centro de Zona B (4B),Não pertence,Pampa,Passo Fundo,Palmeira das Missões,Noroeste Rio-grandense,Frederico Westphalen,0.69,9.24,329.0,2.3
4313706,4313706,PALMEIRA DAS MISSÕES,RIO GRANDE DO SUL,VILA,-53.1505216566954,-27.8416005356457,412.417654,0.737,30,5.0,6.0,4.72,3857,1338,279,128,22,6,67189.91,14.6,74.5,30.9,35.2,98.3,99999999999993.0,33216,34233,3.0,190421689.6,243952782.51,59.6,23.03,4313706,EVANDRO LUIS MASSING,1421.101,Centro Subregional B (3B),Passo Fundo - Capital Regional B (2B),Não pertence,Pampa,Passo Fundo,Palmeira das Missões,Noroeste Rio-grandense,Carazinho,11.81,23.37,7650.0,2.4
4302154,4302154,BOA VISTA DAS MISSÕES,RIO GRANDE DO SUL,POVOADO,-53.3094677109351,-27.6798208425745,563.769424,0.676,1,5.3,5.1,,257,46,25,10,3,1,114288.93,3.8,68.8,10.5,37.3,98.5,99999999999993.0,1933,1969,,29487772.68,36437436.86,78.12,26.18,4302154,RUDILBERTO SOARES LANDESFELDT,196.064,Centro Local (5),Frederico Westphalen - Centro Subregional B (3B)\; Palmeira das Missões - Centro Subregional B (3B),Não pertence,Pampa,Passo Fundo,Frederico Westphalen,Noroeste Rio-grandense,Carazinho,1.13,9.86,506.0,2.5
4305306,4305306,CHAPADA,RIO GRANDE DO SUL,VILA,-53.0479405351139,-28.003898265069,384.374324,0.757,8,5.3,,9.9,927,271,106,30,8,1,80536.95,39.6,91.0,22.0,22.9,98.9,99999999999993.0,9540,9748,62.9,67064271.42,77407132.27,76.22,28.4,4305306,GELSON MIGUEL SCHERER,684.247,Centro Local (5),Carazinho - Centro Subregional A (3A),Não pertence,Pampa,Passo Fundo,Carazinho,Noroeste Rio-grandense,Carazinho,3.53,13.94,2709.0,2.1
4312955,4312955,NOVA BOA VISTA,RIO GRANDE DO SUL,CIDADE,-52.9814768438008,-27.9879676591236,416.0114,0.768,1,6.2,7.7,55.56,221,104,20,12,1,1,83964.24,26.4,95.4,43.6,29.5,98.5,99999999999993.0,2042,2088,,30813151.45,37555339.56,82.01,37.46,4312955,CLEBER BADIN,93.733,Centro Local (5),Sarandi - Centro Subregional B (3B),Não pertence,Mata Atlântica,Passo Fundo,Carazinho,Noroeste Rio-grandense,Carazinho,1.02,21.79,765.0,2.1
4319364,4319364,SÃO PEDRO DAS MISSÕES,RIO GRANDE DO SUL,CIDADE,-53.2473689788526,-27.771308460749,483.024531,0.664,3,,,,211,62,37,15,4,1,56383.85,5.1,18.2,13.0,39.4,99.0,99999999999993.0,1757,1791,,22825182.52,27368619.57,93.88,18.78,4319364,RAFAEL FUMAGALLI E SILVA,79.894,Centro Local (5),Palmeira das Missões - Centro Subregional B (3B),Não pertence,Mata Atlântica,Passo Fundo,Palmeira das Missões,Noroeste Rio-grandense,Carazinho,0.57,21.99,330.0,2.3
4311429,4311429,LAJEADO DO BUGRE,RIO GRANDE DO SUL,CIDADE,-53.1813871337597,-27.6907694083803,393.01155,0.613,1,4.6,5.6,,338,73,39,13,5,1,29145.22,0.0,20.0,3.4,49.1,96.8,99999999999993.0,2601,2660,,22122206.2,28415359.01,95.32,12.46,4311429,RONALDO MACHADO DA SILVA,67.947,Centro Local (5),Palmeira das Missões - Centro Subregional B (3B),Não pertence,Mata Atlântica,Passo Fundo,Palmeira das Missões,Noroeste Rio-grandense,Carazinho,0.44,38.28,324.0,1.9
4316428,4316428,SAGRADA FAMÍLIA,RIO GRANDE DO SUL,VILA,-53.1142095565191,-27.6724675852504,377.34199,0.678,1,5.2,6.7,,242,89,24,16,2,1,31762.83,13.0,71.5,22.6,40.2,98.6,99999999999993.0,2480,2529,,27596255.49,36861066.76,77.76,16.98,4316428,MAURO ROGERIO FERRARI GALATTO,77.889,Centro Local (5),Palmeira das Missões - Centro Subregional B (3B),Não pertence,Mata Atlântica,Passo Fundo,Palmeira das Missões,Noroeste Rio-grandense,Carazinho,0.9,31.84,421.0,1.8
4313490,4313490,NOVO BARREIRO,RIO GRANDE DO SUL,CIDADE,-53.1134988510144,-27.9067884670258,382.093537,0.706,2,5.1,6.5,,459,109,37,20,3,1,32305.57,33.3,52.9,17.8,34.1,99.2,99999999999993.0,4272,4371,,32901932.85,41184672.93,80.97,16.29,4313490,MARCIA RAQUEL RODRIGUES PRESOTTO,123.344,Centro Local (5),Palmeira das Missões - Centro Subregional B (3B),Não pertence,Mata Atlântica,Passo Fundo,Palmeira das Missões,Noroeste Rio-grandense,Carazinho,1.47,34.63,696.0,2.2
4301958,4301958,BARRA FUNDA,RIO GRANDE DO SUL,AUI,-52.9659277780308,-27.9247504353303,511.674127,0.763,2,5.8,6.0,,261,63,26,11,2,1,64388.93,63.2,99.2,37.7,22.6,100.0,99999999999993.0,2498,2555,,35634800.46,37049699.3,77.03,35.99,4301958,ANDRE SIGNOR,60.437,Centro Local (5),Sarandi - Centro Subregional B (3B),Não pertence,Mata Atlântica,Passo Fundo,Carazinho,Noroeste Rio-grandense,Carazinho,1.75,41.33,899.0,2.3
4318457,4318457,SÃO JOSÉ DAS MISSÕES,RIO GRANDE DO SUL,CIDADE,-53.1187752690111,-27.7781833180516,463.52375,0.651,1,,6.4,,234,74,29,14,2,1,37475.0,37.8,80.8,14.1,37.4,99.0,99999999999993.0,2362,2403,,26519243.64,31343159.11,91.58,15.62,4318457,GILMAR WEBER TOLFO,98.125,Centro Local (5),Palmeira das Missões - Centro Subregional B (3B),Não pertence,Mata Atlântica,Passo Fundo,Palmeira das Missões,Noroeste Rio-grandense,Carazinho,0.75,24.07,369.0,2.3
4313466,4313466,NOVO XINGU,RIO GRANDE DO SUL,CIDADE,-53.0641092994744,-27.7481146921356,349.730883,0.767,2,5.3,7.2,,149,39,24,13,3,1,44007.49,39.0,82.9,29.9,25.0,99.5,99999999999993.0,1646,1678,,24407984.71,27394142.34,92.75,18.89,4313466,GELCIO MARTINELLI,79.851,Centro Local (5),Constantina - Centro de Zona B (4B),Não pertence,Mata Atlântica,Passo Fundo,Carazinho,Noroeste Rio-grandense,Frederico Westphalen,0.73,20.61,311.0,2.4
4305801,4305801,CONSTANTINA,RIO GRANDE DO SUL,VILA,-52.9270795722943,-27.6694262209472,459.596603,0.754,6,5.1,6.4,6.9,1099,245,92,35,9,1,43658.25,45.6,96.3,39.9,33.4,96.1,99999999999993.0,10385,10623,279.2,62494467.94,68815490.9,75.28,27.51,4305801,CRISTIAN RIBOLI BRATZ,203.614,Centro de Zona B (4B),Sarandi - Centro Subregional B (3B),Não pertence,Mata Atlântica,Passo Fundo,Carazinho,Noroeste Rio-grandense,Frederico Westphalen,4.03,51.0,2857.0,1.9
4313011,4313011,NOVA CANDELÁRIA,RIO GRANDE DO SUL,CIDADE,-54.1041142397608,-27.6120981609471,297.512609,0.759,1,5.0,7.1,,289,66,28,9,3,1,85704.31,55.7,53.0,82.2,32.8,97.9,99999999999993.0,3061,3134,,33886763.31,43974048.63,77.98,37.7,4313011,ARI EDMUNDO ROEHRS,97.579,Centro Local (5),Boa Vista do Buricá - Centro de Zona B (4B),Não pertence,Mata Atlântica,Ijuí,Três de Maio,Noroeste Rio-grandense,Três Passos,0.97,31.37,1154.0,2.4
4306007,4306007,CRISSIUMAL,RIO GRANDE DO SUL,AUI,-54.1073740552504,-27.4869854488887,370.898028,0.712,7,5.5,6.4,14.49,1218,295,91,34,13,2,38358.26,25.3,96.1,15.4,28.2,98.8,99999999999993.0,12886,13127,100.9,72239465.5,79500492.29,81.34,24.22,4306007,MARCO AURELIO NEDEL,362.194,Centro Local (5),Três Passos - Centro Subregional B (3B),Não pertence,Mata Atlântica,Ijuí,Três Passos,Noroeste Rio-grandense,Três Passos,4.97,35.58,3121.0,1.9
4320230,4320230,SEDE NOVA,RIO GRANDE DO SUL,VILA,-53.9909531306701,-27.6075205518413,437.252537,0.712,1,3.7,6.4,,288,43,30,11,2,1,54794.43,5.1,77.6,13.4,35.0,99.0,99999999999993.0,2704,2753,,31118469.99,41381616.86,79.38,18.38,4320230,PEDRO AMAURI WERNER,119.312,Centro Local (5),Três Passos - Centro Subregional B (3B),Não pertence,Mata Atlântica,Ijuí,Três Passos,Noroeste Rio-grandense,Três Passos,1.14,22.66,497.0,2.1
4309704,4309704,HUMAITÁ,RIO GRANDE DO SUL,CIDADE,-53.9765055737001,-27.5614898161207,447.369918,0.738,3,5.2,6.2,68.18,478,124,49,22,5,1,48651.94,33.4,95.7,25.8,22.8,99.0,99999999999993.0,4681,4774,,44800425.93,48793142.88,74.04,22.69,4309704,LUIZ CARLOS SANDRI,135.01,Centro Local (5),Três Passos - Centro Subregional B (3B),Não pertence,Mata Atlântica,Ijuí,Três Passos,Noroeste Rio-grandense,Três Passos,1.71,34.67,1062.0,1.9
4321477,4321477,TIRADENTES DO SUL,RIO GRANDE DO SUL,VILA,-54.1379141110073,-27.3049565701956,146.434162,0.689,5,5.7,6.4,,530,125,52,16,8,1,35473.86,4.9,91.3,10.5,35.5,98.8,99999999999993.0,5129,5201,,35405986.68,38940380.33,89.8,12.4,4321477,ELTON LUIS PILGER,236.653,Centro Local (5),Três Passos - Centro Subregional B (3B),Não pertence,Mata Atlântica,Ijuí,Três Passos,Noroeste Rio-grandense,Três Passos,1.87,21.67,636.0,2.1
4321907,4321907,TRÊS PASSOS,RIO GRANDE DO SUL,VILA,-53.9123790722225,-27.3545879678683,375.197612,0.768,17,5.1,6.5,6.25,2879,726,185,79,15,4,43406.37,31.7,92.6,42.4,26.7,98.9,99999999999993.0,25436,26284,78.6,145621968.3,144548864.46,72.42,33.79,4321907,ARLEI LUIS TOMAZONI,268.902,Centro Subregional B (3B),Ijuí - Centro Subregional A (3A),Não pertence,Mata Atlântica,Ijuí,Três Passos,Noroeste Rio-grandense,Três Passos,11.29,94.59,8594.0,2.2
4307450,4307450,ESPERANÇA DO SUL,RIO GRANDE DO SUL,VILA,-53.9528675654797,-27.3439640300225,353.243193,0.661,5,6.2,6.8,,361,82,26,7,2,1,41015.55,22.0,59.9,3.3,35.3,98.0,99999999999993.0,3226,3294,,28691689.0,33508161.23,89.01,14.94,4307450,ADEMIR VILLERS DA CRUZ,148.909,Centro Local (5),Três Passos - Centro Subregional B (3B),Não pertence,Mata Atlântica,Ijuí,Três Passos,Noroeste Rio-grandense,Três Passos,1.22,21.66,482.0,2.3
4302378,4302378,BOM PROGRESSO,RIO GRANDE DO SUL,CIDADE,-53.8667908856402,-27.5467742041554,465.310464,0.723,1,,,35.71,215,214,23,25,3,2,46436.67,11.4,98.0,22.6,38.1,99.1,99999999999993.0,2096,2134,,25812545.96,26936997.59,92.11,19.75,4302378,NORIMAR LEOPOLDO SCHOSSLER,89.206,Centro Local (5),Três Passos - Centro Subregional B (3B),Não pertence,Mata Atlântica,Ijuí,Três Passos,Noroeste Rio-grandense,Três Passos,0.95,23.5,414.0,1.9
4302600,4302600,BRAGA,RIO GRANDE DO SUL,VILA,-53.6985467879306,-27.6007631680137,438.544994,0.674,3,4.5,5.1,24.39,389,98,42,16,4,1,40032.87,5.5,99.7,7.6,39.0,92.9,99999999999993.0,3268,3326,,26174771.45,31254650.98,92.37,14.53,4302600,SADI ENRIQUE DELLA LIBERA,132.044,Centro Local (5),Três Passos - Centro Subregional B (3B),Não pertence,Mata Atlântica,Ijuí,Três Passos,Noroeste Rio-grandense,Três Passos,1.43,24.75,475.0,2.1
4321402,4321402,TENENTE PORTELA,RIO GRANDE DO SUL,VILA,-53.7534956066047,-27.3003071379532,429.486569,0.708,10,4.8,6.0,23.04,1834,423,139,53,17,2,43273.27,8.0,96.3,18.6,37.4,96.7,99999999999993.0,14497,14811,607.0,8972103.93,7095415.55,76.61,26.54,4321402,ROSEMAR ANTONIO SALA,337.495,Centro de Zona B (4B),Frederico Westphalen - Centro Subregional B (3B),Não pertence,Mata Atlântica,Ijuí,Três Passos,Noroeste Rio-grandense,Três Passos,5.46,42.95,3847.0,2.1
4312302,4312302,MIRAGUAÍ,RIO GRANDE DO SUL,VILA,-53.6991845457664,-27.4556936395878,494.19765,0.725,1,4.5,5.7,,694,231,59,27,7,1,38862.02,8.3,55.5,35.8,35.7,99.1,99999999999993.0,4427,4506,,32799575.47,40354199.75,91.59,42.04,4312302,LEONIR HARTK,131.236,Centro Local (5),Tenente Portela - Centro de Zona B (4B),Não pertence,Mata Atlântica,Ijuí,Três Passos,Noroeste Rio-grandense,Três Passos,1.9,33.73,1861.0,1.7
4306320,4306320,DERRUBADAS,RIO GRANDE DO SUL,CIDADE,-53.8651194603325,-27.2653909362973,454.249413,0.707,2,5.5,6.6,,267,89,23,9,3,1,54601.48,12.0,94.3,60.9,43.1,100.0,99999999999993.0,2751,2797,,30066957.52,36813336.45,89.06,15.01,4306320,MIRO MULBEIER,360.851,Centro Local (5),Tenente Portela - Centro de Zona B (4B),Não pertence,Mata Atlântica,Ijuí,Três Passos,Noroeste Rio-grandense,Três Passos,0.92,7.62,413.0,2.3
4323705,4323705,VISTA GAÚCHA,RIO GRANDE DO SUL,VILA,-53.7217307850179,-27.2538298067341,432.223879,0.757,3,4.9,6.7,,265,54,27,11,4,1,36218.23,7.7,70.7,27.2,28.5,100.0,99999999999993.0,2783,2842,,30551977.62,40501038.31,83.39,24.94,4323705,CLAUDEMIR JOSE LOCATELLI,90.022,Centro Local (5),Tenente Portela - Centro de Zona B (4B),Não pertence,Mata Atlântica,Ijuí,Três Passos,Noroeste Rio-grandense,Três Passos,0.96,30.91,694.0,2.1
4314498,4314498,PINHEIRINHO DO VALE,RIO GRANDE DO SUL,POVOADO,-53.7110549381288,-27.1816684742289,184.62733,0.71,2,5.8,6.6,,563,115,53,16,6,1,26704.69,29.1,99.7,17.7,37.3,97.3,99999999999993.0,4540,4637,,32645771.88,37504453.57,93.32,15.13,4314498,ELTON TATTO,105.385,Centro Local (5),Arranjo Populacional de Itapiranga/SC - Centro de Zona B (4B)\; Frederico Westphalen - Centro Subregional B (3B),Não pertence,Mata Atlântica,Passo Fundo,Frederico Westphalen,Noroeste Rio-grandense,Frederico Westphalen,1.58,43.08,687.0,2.0
4301859,4301859,BARRA DO GUARITA,RIO GRANDE DO SUL,POVOADO,-53.7572965067781,-27.2463435599963,418.4525,0.734,3,,5.6,,406,81,53,16,5,1,17394.57,3.3,98.7,5.6,29.7,97.9,99999999999993.0,3161,3230,,26335605.04,36311066.4,80.33,10.85,4301859,VALCIER BALESTRIN,62.801,Centro de Zona B (4B) - Município integrante do Arranjo Populacional de Itapiranga/SC,São Miguel do Oeste - Centro Subregional A (3A),Não pertence,Mata Atlântica,Ijuí,Três Passos,Noroeste Rio-grandense,Três Passos,1.1,50.33,343.0,2.0
4208401,4208401,ITAPIRANGA,SANTA CATARINA,AUI,-53.6330086723761,-27.1815333424984,257.342129,0.775,6,5.6,6.9,15.54,1960,516,171,73,14,5,62122.97,61.6,88.9,58.4,23.5,99.8,99999999999993.0,16638,17149,42.1,121645247.6,137136962.72,77.28,53.85,4208401,ALEXANDRE GOMES RIBAS,281.782,Centro de Zona B (4B) - Município integrante do Arranjo Populacional de Itapiranga/SC,São Miguel do Oeste - Centro Subregional A (3A),Não pertence,Mata Atlântica,Chapecó,São Miguel do Oeste,Oeste Catarinense,São Miguel do Oeste,4.09,59.05,8960.0,2.1
4218756,4218756,TUNÁPOLIS,SANTA CATARINA,CIDADE,-53.641459736047,-26.9722235914893,420.176826,0.752,3,5.9,7.0,17.86,504,130,41,24,3,1,40447.82,36.7,54.8,9.0,32.6,99.4,99999999999993.0,4916,5054,142.4,39834052.74,46798252.49,86.92,24.27,4218756,MARINO JOSE FREY,132.939,Centro Local (5),São Miguel do Oeste - Centro Subregional A (3A),Não pertence,Mata Atlântica,Chapecó,São Miguel do Oeste,Oeste Catarinense,São Miguel do Oeste,1.88,36.98,1193.0,2.2
4215554,4215554,SANTA HELENA,SANTA CATARINA,CIDADE,-53.6199878739379,-26.9398439236403,514.0663,0.727,1,5.2,7.6,,251,58,25,12,2,1,47568.58,27.3,9.6,10.3,31.2,100.0,99999999999993.0,2425,2473,,27104564.97,17598520.36,82.46,27.38,4215554,CLOVIS LAZAROTTO,81.004,Centro Local (5),São Miguel do Oeste - Centro Subregional A (3A),Não pertence,Mata Atlântica,Chapecó,São Miguel do Oeste,Oeste Catarinense,São Miguel do Oeste,0.73,29.94,664.0,2.0
4202081,4202081,BANDEIRANTE,SANTA CATARINA,CIDADE,-53.64104958659,-26.7689379013244,502.983496,0.672,1,,,25.0,396,97,30,15,2,1,39039.04,9.0,16.6,17.6,36.1,99.3,99999999999993.0,3144,3243,,33682610.24,33282241.21,92.78,15.36,4202081,EDER LUIZ MARCON,148.074,Centro Local (5),São Miguel do Oeste - Centro Subregional A (3A),Não pertence,Mata Atlântica,Chapecó,São Miguel do Oeste,Oeste Catarinense,São Miguel do Oeste,2.0,21.23,483.0,2.3
4212239,4212239,PARAÍSO,SANTA CATARINA,PROJETO DE ASSENTAMENTO,-53.6427072355524,-26.7092473319637,450.367083,0.7,2,5.2,,20.0,469,113,40,22,4,1,43632.07,4.4,67.3,11.0,28.9,100.0,99999999999993.0,4267,4376,,37867544.19,39835446.44,85.11,15.8,4212239,GILBERTO BELEGANTE,180.338,Centro Local (5),São Miguel do Oeste - Centro Subregional A (3A),Não pertence,Mata Atlântica,Chapecó,São Miguel do Oeste,Oeste Catarinense,São Miguel do Oeste,1.67,23.66,674.0,1.8
4307302,4307302,ERVAL SECO,RIO GRANDE DO SUL,VILA,-53.4624275024581,-27.492490693443,364.455717,0.685,9,5.2,,,751,181,72,30,9,2,52854.5,46.3,52.5,18.2,39.0,99.1,99999999999993.0,6787,6902,,43042759.93,48657850.19,90.83,15.96,4307302,EDERSON WINK,357.181,Centro de Zona B (4B),Frederico Westphalen - Centro Subregional B (3B),Não pertence,Mata Atlântica,Passo Fundo,Frederico Westphalen,Noroeste Rio-grandense,Frederico Westphalen,2.35,19.0,1083.0,2.0
4313805,4313805,PALMITINHO,RIO GRANDE DO SUL,CIDADE,-53.5555460129883,-27.3560199139378,516.982325,0.72,4,5.8,7.3,,820,198,73,27,6,1,38497.82,17.3,93.3,45.7,33.9,98.7,99999999999993.0,7839,8032,293.4,44871186.26,53041676.66,86.92,24.53,4313805,BENHUR DAILOR BARTH,144.181,Centro Local (5),Frederico Westphalen - Centro Subregional B (3B),Não pertence,Mata Atlântica,Passo Fundo,Frederico Westphalen,Noroeste Rio-grandense,Frederico Westphalen,2.98,54.37,1923.0,1.9
4323507,4323507,VISTA ALEGRE,RIO GRANDE DO SUL,CIDADE,-53.4924104661248,-27.3700841700745,546.141637,0.739,1,5.7,7.0,,239,77,28,12,3,1,50279.94,8.5,96.7,20.1,36.6,97.9,99999999999993.0,2660,2712,,25410389.43,30038938.29,92.88,23.68,4323507,RUDINEI BRIDI,77.656,Centro Local (5) - Município integrante do Arranjo Populacional de Taquaruçu do Sul - Vista Alegre/RS,Frederico Westphalen - Centro Subregional B (3B),Não pertence,Mata Atlântica,Passo Fundo,Frederico Westphalen,Noroeste Rio-grandense,Frederico Westphalen,0.88,34.27,630.0,2.1
4321329,4321329,TAQUARUÇU DO SUL,RIO GRANDE DO SUL,CIDADE,-53.4669519596144,-27.3980360509079,540.15949,0.739,3,5.5,7.0,,339,41,31,13,2,1,61297.18,32.9,60.1,30.4,32.1,98.4,99999999999993.0,3119,3190,,32092590.52,35481986.17,91.65,22.44,4321329,LUIZ BLANCO ALVES,76.917,Centro Local (5) - Município integrante do Arranjo Populacional de Taquaruçu do Sul - Vista Alegre/RS,Frederico Westphalen - Centro Subregional B (3B),Não pertence,Mata Atlântica,Passo Fundo,Frederico Westphalen,Noroeste Rio-grandense,Frederico Westphalen,1.06,40.55,700.0,2.0
4320206,4320206,SEBERI,RIO GRANDE DO SUL,VILA,-53.3473171553645,-27.4194168374734,298.951258,0.723,5,5.3,6.6,5.21,1334,309,94,35,6,1,57805.09,22.8,86.6,16.0,35.1,98.1,99999999999993.0,11950,12313,92.1,74421208.59,89590825.99,68.71,34.63,4320206,ADILSON ADAM BALESTRIN,301.032,Centro Local (5),Frederico Westphalen - Centro Subregional B (3B),Não pertence,Mata Atlântica,Passo Fundo,Frederico Westphalen,Noroeste Rio-grandense,Frederico Westphalen,4.02,39.72,4138.0,2.1
4308508,4308508,FREDERICO WESTPHALEN,RIO GRANDE DO SUL,VILA,-53.2791234717568,-27.3533715506464,233.410152,0.76,13,5.6,6.8,6.83,3606,1415,259,141,22,6,45165.14,42.6,87.4,67.5,28.0,97.9,99999999999993.0,32627,33684,122.6,153169359.3,182283897.56,62.84,39.1,4308508,ORLANDO GIRARDI,264.876,Centro Subregional B (3B),Arranjo Populacional de Chapecó/SC - Capital Regional B (2B)\; Passo Fundo - Capital Regional B (2B),Não pertence,Mata Atlântica,Passo Fundo,Frederico Westphalen,Noroeste Rio-grandense,Frederico Westphalen,12.67,123.04,12756.0,2.1
4216255,4216255,SÃO JOÃO DO OESTE,SANTA CATARINA,AUI,-53.5789033990244,-27.0389296030021,527.551795,0.761,2,5.9,7.2,,575,147,59,29,6,2,54990.07,32.5,61.6,19.9,29.9,100.0,99999999999993.0,6295,6446,79.4,49795344.65,59181305.87,81.05,33.76,4216255,SÉRGIO LUÍS THEISEN,163.589,Centro Local (5),Arranjo Populacional de Itapiranga/SC - Centro de Zona B (4B),Não pertence,Mata Atlântica,Chapecó,São Miguel do Oeste,Oeste Catarinense,São Miguel do Oeste,2.63,38.44,2125.0,2.7
4303400,4303400,CAIÇARA,RIO GRANDE DO SUL,VILA,-53.5503687818878,-27.210047107911,185.701806,0.699,4,5.0,6.9,24.39,439,111,37,14,3,1,32805.41,36.0,95.5,30.4,34.4,97.1,99999999999993.0,4836,4933,103.4,32579474.73,35729433.5,79.81,13.94,4303400,ZÍLIO ROGGIA,189.071,Centro Local (5),Frederico Westphalen - Centro Subregional B (3B),Não pertence,Mata Atlântica,Passo Fundo,Frederico Westphalen,Noroeste Rio-grandense,Frederico Westphalen,1.5,25.57,674.0,2.2
4323101,4323101,VICENTE DUTRA,RIO GRANDE DO SUL,ALDEIA INDÍGENA,-53.4128031279837,-27.1693091710154,215.152037,0.638,3,4.2,5.7,,544,142,50,17,4,1,27927.91,18.4,98.8,45.7,43.1,96.1,99999999999993.0,4665,4747,,29965914.31,37028149.15,91.18,7.91,4323101,TOMAZ DE AQUINO ROSSATO,193.023,Centro Local (5),Frederico Westphalen - Centro Subregional B (3B),Não pertence,Mata Atlântica,Passo Fundo,Frederico Westphalen,Noroeste Rio-grandense,Frederico Westphalen,2.52,24.17,369.0,2.4
4211009,4211009,MONDAÍ,SANTA CATARINA,AUI,-53.4319214182786,-27.0704740838501,288.662236,0.748,5,5.1,6.7,,1112,243,69,26,5,1,90503.33,33.0,45.2,27.6,24.5,96.1,99999999999993.0,10066,10216,89.4,68349448.83,81778431.51,83.83,34.5,4211009,ELIZANDRO MAINARDI,200.276,Centro Local (5),São Miguel do Oeste - Centro Subregional A (3A),Não pertence,Mata Atlântica,Chapecó,Chapecó,Oeste Catarinense,São Miguel do Oeste,3.84,50.26,3473.0,2.1
4215075,4215075,RIQUEZA,SANTA CATARINA,AUI,-53.3448465231607,-26.9975934670353,239.736915,0.714,4,4.8,7.4,,509,232,47,28,4,1,32629.64,26.9,92.2,24.5,32.2,98.5,99999999999993.0,4768,4835,,34852003.86,40632172.85,87.12,22.44,4215075,JULIANO LUIZ BORTOLANZA,191.061,Centro Local (5),Palmitos - Centro de Zona B (4B),Não pertence,Mata Atlântica,Chapecó,Chapecó,Oeste Catarinense,São Miguel do Oeste,1.99,24.96,1070.0,2.0
4310850,4310850,JABOTICABA,RIO GRANDE DO SUL,VILA,-53.2901912886827,-27.6759536038436,507.7237,0.658,5,5.5,6.5,23.26,398,92,50,18,4,1,36578.03,23.6,31.9,28.6,43.1,98.1,99999999999993.0,3779,3850,158.8,30617297.25,34868362.21,92.07,16.46,4310850,EDVALDO ROSA RIBEIRO,127.589,Centro Local (5),Frederico Westphalen - Centro Subregional B (3B)\; Palmeira das Missões - Centro Subregional B (3B),Não pertence,Mata Atlântica,Passo Fundo,Frederico Westphalen,Noroeste Rio-grandense,Carazinho,1.28,29.62,622.0,2.0
4314456,4314456,PINHAL,RIO GRANDE DO SUL,CIDADE,-53.2147061788915,-27.5116742434576,340.750715,0.72,1,5.7,6.6,21.28,337,86,30,16,3,1,47787.94,30.3,73.1,71.4,32.5,98.4,99999999999993.0,2959,3034,,38718002.56,47708827.03,85.1,36.84,4314456,LUIZ CARLOS PINTO RIBEIRO,68.222,Centro Local (5),Rodeio Bonito - Centro de Zona B (4B),Não pertence,Mata Atlântica,Passo Fundo,Frederico Westphalen,Noroeste Rio-grandense,Carazinho,0.82,43.37,1090.0,2.3
4305157,4305157,CERRO GRANDE,RIO GRANDE DO SUL,CIDADE,-53.1659130764764,-27.6079801347369,368.250529,0.674,1,5.2,6.7,,250,68,37,16,5,1,32687.84,50.9,78.4,26.7,39.3,97.7,99999999999993.0,2379,2429,,29470988.66,35827364.68,78.75,15.38,4305157,ALVARO DECARLI,73.438,Centro Local (5),Frederico Westphalen - Centro Subregional B (3B),Não pertence,Mata Atlântica,Passo Fundo,Palmeira das Missões,Noroeste Rio-grandense,Carazinho,1.06,32.39,366.0,2.2
4313441,4313441,NOVO TIRADENTES,RIO GRANDE DO SUL,CIDADE,-53.1857025890656,-27.5635584344757,333.510446,0.676,1,5.5,6.4,,237,73,35,15,2,1,34137.89,11.1,61.6,18.4,31.6,98.8,99999999999993.0,2146,2188,,28107595.9,36480051.21,80.66,14.07,4313441,LUIZ CARLOS BENEDETTE,75.428,Centro Local (5),Rodeio Bonito - Centro de Zona B (4B),Não pertence,Mata Atlântica,Passo Fundo,Frederico Westphalen,Noroeste Rio-grandense,Frederico Westphalen,0.52,28.45,302.0,2.2
4306072,4306072,CRISTAL DO SUL,RIO GRANDE DO SUL,CIDADE,-53.2491844952574,-27.4536295671694,333.740406,0.66,1,5.1,6.0,,274,81,33,15,3,1,33359.29,17.2,54.0,18.0,40.6,97.8,99999999999993.0,2692,2746,,24119153.32,32638219.71,95.36,12.74,4306072,ALEXANDRE COSTA,97.073,Centro Local (5),Frederico Westphalen - Centro Subregional B (3B),Não pertence,Mata Atlântica,Passo Fundo,Frederico Westphalen,Noroeste Rio-grandense,Frederico Westphalen,1.1,27.73,343.0,2.1
4315909,4315909,RODEIO BONITO,RIO GRANDE DO SUL,VILA,-53.1759373651405,-27.4231881927099,261.382117,0.732,3,5.2,6.6,,722,187,60,17,5,1,47593.36,24.2,90.3,25.2,26.1,99.3,99999999999993.0,6654,6821,90.2,44328847.11,52746758.64,90.29,25.08,4315909,PAULO DUARTE,83.278,Centro de Zona B (4B),Frederico Westphalen - Centro Subregional B (3B),Não pertence,Mata Atlântica,Passo Fundo,Frederico Westphalen,Noroeste Rio-grandense,Frederico Westphalen,2.94,79.9,1669.0,2.0
4300646,4300646,AMETISTA DO SUL,RIO GRANDE DO SUL,VILA,-53.165319865094,-27.3940554922625,302.894184,0.682,5,4.5,5.8,,867,272,53,21,4,1,24036.02,28.4,15.7,28.7,35.9,100.0,99999999999993.0,7650,7822,117.6,42360620.15,54179815.36,74.28,25.07,4300646,GILMAR DA SILVA,93.605,Centro Local (5),Frederico Westphalen - Centro Subregional B (3B),Não pertence,Mata Atlântica,Passo Fundo,Frederico Westphalen,Noroeste Rio-grandense,Frederico Westphalen,2.52,81.64,1918.0,1.7
4311601,4311601,LIBERATO SALZANO,RIO GRANDE DO SUL,ALDEIA INDÍGENA,-53.1427924178958,-27.4741470025802,318.679547,0.685,4,4.5,6.3,,490,144,53,25,7,2,33898.65,47.8,53.4,6.3,33.8,98.9,99999999999993.0,4781,4854,,32528092.28,38483576.72,81.89,15.27,4311601,GILSON DE CARLI,245.627,Centro Local (5),Constantina - Centro de Zona B (4B),Não pertence,Mata Atlântica,Passo Fundo,Frederico Westphalen,Noroeste Rio-grandense,Frederico Westphalen,1.33,19.46,730.0,2.2
4310504,4310504,IRAÍ,RIO GRANDE DO SUL,ALDEIA INDÍGENA,-53.2369824193872,-27.1937835787718,332.026382,0.691,2,5.1,6.7,,914,168,105,36,10,2,36118.47,4.7,99.0,21.2,37.8,98.4,99999999999993.0,7482,7624,761.8,35541772.09,43309960.55,87.0,15.99,4310504,VOLMIR JOSÉ BIELSKI,181.85,Centro Local (5),Frederico Westphalen - Centro Subregional B (3B),Não pertence,Mata Atlântica,Passo Fundo,Frederico Westphalen,Noroeste Rio-grandense,Frederico Westphalen,2.65,41.21,1196.0,1.9
4203105,4203105,CAIBI,SANTA CATARINA,CIDADE,-53.2505271955837,-27.073053932558,322.78054,0.728,4,5.4,6.8,,667,247,60,30,4,1,51823.35,26.1,93.8,22.8,27.0,98.7,99999999999993.0,6304,6431,,40899540.87,48113354.08,87.49,34.07,4203105,EDER PICOLI,173.079,Centro Local (5),Arranjo Populacional de Chapecó/SC - Capital Regional B (2B),Não pertence,Mata Atlântica,Chapecó,Chapecó,Oeste Catarinense,Chapecó,1.94,36.42,2148.0,2.6
4212106,4212106,PALMITOS,SANTA CATARINA,AUI,-53.0765984624891,-27.158820812279,226.292953,0.737,11,4.6,6.0,11.76,1713,363,145,50,11,3,56599.05,33.8,58.0,15.1,27.8,99.0,782.0,15626,15812,192.0,87893966.06,95148438.34,81.4,40.78,4212106,GIOVANA GIACOMOLLI,351.051,Centro de Zona B (4B),Arranjo Populacional de Chapecó/SC - Capital Regional B (2B),Não pertence,Mata Atlântica,Chapecó,Chapecó,Oeste Catarinense,Chapecó,6.23,44.51,6372.0,2.9
4314704,4314704,PLANALTO,RIO GRANDE DO SUL,ALDEIA INDÍGENA,-52.9906283947781,-27.3186204701274,483.752675,0.687,7,5.4,6.8,6.8,1156,305,90,34,11,2,25359.66,36.5,84.7,30.8,37.1,97.2,99999999999993.0,10406,10624,249.9,48199390.85,55789507.24,85.56,21.64,4314704,CRISTIANO GNOATTO,228.552,Centro Local (5),Arranjo Populacional de Chapecó/SC - Capital Regional B (2B),Não pertence,Mata Atlântica,Passo Fundo,Nonoai,Noroeste Rio-grandense,Frederico Westphalen,4.04,45.53,2252.0,2.0
4300505,4300505,ALPESTRE,RIO GRANDE DO SUL,VILA,-53.0506531763163,-27.1230362106466,315.739651,0.671,4,5.8,7.3,16.95,704,279,71,21,8,2,33369.8,33.0,75.5,17.0,36.7,98.1,99999999999993.0,7117,7243,42.2,66585458.0,83749721.15,75.44,15.89,4300505,RUDIMAR ARGENTON,325.979,Centro Local (5),Arranjo Populacional de Chapecó/SC - Capital Regional B (2B),Não pertence,Mata Atlântica,Passo Fundo,Nonoai,Noroeste Rio-grandense,Frederico Westphalen,1.99,21.83,1131.0,2.5
4216008,4216008,SÃO CARLOS,SANTA CATARINA,CIDADE,-53.017394273321,-27.0786350778961,293.198058,0.769,8,4.8,6.0,9.71,1154,371,75,54,5,2,45458.73,22.2,47.1,20.8,25.9,98.9,99999999999993.0,10282,10460,671.1,66002537.28,74639826.74,83.13,35.03,4216008,DELTON PAULO BALBINOT,162.12,Centro de Zona B (4B) - Município integrante do Arranjo Populacional de São Carlos - Águas de Chapecó/SC,Arranjo Populacional de Chapecó/SC - Capital Regional B (2B),Não pertence,Mata Atlântica,Chapecó,Chapecó,Oeste Catarinense,Chapecó,3.63,63.42,3602.0,2.3
4200507,4200507,ÁGUAS DE CHAPECÓ,SANTA CATARINA,CIDADE,-52.9872510056855,-27.0762129124757,237.124936,0.713,2,4.3,5.0,,741,152,68,25,5,1,21040.34,25.4,97.4,11.1,32.1,99.3,99999999999993.0,6036,6128,,39012794.81,43518693.63,89.67,15.89,4200507,OSCAR BARELA,139.511,Centro de Zona B (4B) - Município integrante do Arranjo Populacional de São Carlos - Águas de Chapecó/SC,Arranjo Populacional de Chapecó/SC - Capital Regional B (2B),Não pertence,Mata Atlântica,Chapecó,Chapecó,Oeste Catarinense,Chapecó,1.49,43.27,959.0,2.3
4207650,4207650,IPORÃ DO OESTE,SANTA CATARINA,CIDADE,-53.5395118843069,-26.9960166793445,545.960185,0.759,3,6.1,7.1,9.71,958,360,66,55,4,2,41930.24,45.8,69.3,32.3,28.4,98.8,99999999999993.0,9335,9672,439.2,57433713.45,67005783.68,80.15,27.78,4207650,MICHEL NEDEL BARTH,201.118,Centro Local (5),São Miguel do Oeste - Centro Subregional A (3A),Não pertence,Mata Atlântica,Chapecó,São Miguel do Oeste,Oeste Catarinense,São Miguel do Oeste,4.17,46.45,2593.0,2.1
4202156,4202156,BELMONTE,SANTA CATARINA,CIDADE,-53.5809772314809,-26.8445863474828,567.358228,0.705,1,4.8,6.8,,305,58,22,17,3,1,21255.57,12.7,55.9,13.6,32.6,100.0,99999999999993.0,2658,2709,,27629612.55,29788938.9,91.63,16.37,4202156,JAIR ANTONIO GIUMBELLI,93.852,Centro Local (5),São Miguel do Oeste - Centro Subregional A (3A),Não pertence,Mata Atlântica,Chapecó,São Miguel do Oeste,Oeste Catarinense,São Miguel do Oeste,0.84,28.32,435.0,2.6
4204905,4204905,DESCANSO,SANTA CATARINA,VILA,-53.5037764175016,-26.898522468771,551.453924,0.743,3,4.7,6.5,11.76,795,161,73,35,6,2,36746.79,27.8,74.8,13.2,26.2,99.2,99999999999993.0,8530,8660,445.5,51023210.61,57352861.22,84.15,21.49,4204905,JULIANO JUNIOR KASPER,287.057,Centro Local (5),São Miguel do Oeste - Centro Subregional A (3A),Não pertence,Mata Atlântica,Chapecó,São Miguel do Oeste,Oeste Catarinense,São Miguel do Oeste,3.25,29.72,1833.0,2.1
4205357,4205357,FLOR DO SERTÃO,SANTA CATARINA,CIDADE,-53.3448914354815,-26.7794323287604,299.438254,0.708,1,4.6,6.1,,208,65,20,14,2,1,40808.13,31.2,81.7,14.5,33.7,99.1,99999999999993.0,1783,1850,,26292348.67,27514092.29,91.64,28.55,4205357,VALDEMAR GRANDO,58.457,Centro Local (5),São Miguel do Oeste - Centro Subregional A (3A),Não pertence,Mata Atlântica,Chapecó,São Miguel do Oeste,Oeste Catarinense,Chapecó,0.33,30.5,509.0,2.3
4217204,4217204,SÃO MIGUEL DO OESTE,SANTA CATARINA,CIDADE,-53.5188394061561,-26.7264271766606,643.853122,0.801,27,5.3,6.5,12.94,4945,1806,324,204,22,12,52711.62,32.3,91.9,69.8,23.8,97.7,99999999999993.0,44330,46969,54.1,227538350.4,257742235.19,66.48,45.86,4217204,VARDELIDIO EDENILSON ZANARDI,233.83,Centro Subregional A (3A),Arranjo Populacional de Chapecó/SC - Capital Regional B (2B),Não pertence,Mata Atlântica,Chapecó,São Miguel do Oeste,Oeste Catarinense,São Miguel do Oeste,17.49,189.28,20329.0,2.6
4206405,4206405,GUARACIABA,SANTA CATARINA,AUI,-53.5196116555078,-26.5402967637194,732.678153,0.751,5,6.0,7.0,19.61,1037,274,89,35,7,1,45623.37,33.3,92.6,45.6,27.6,99.4,99999999999993.0,10796,11040,129.7,72831324.89,83876882.37,83.87,28.68,4206405,DOMINGOS MARCON,331.766,Centro Local (5),São Miguel do Oeste - Centro Subregional A (3A),Não pertence,Mata Atlântica,Chapecó,São Miguel do Oeste,Oeste Catarinense,São Miguel do Oeste,3.62,32.54,3096.0,2.0
4214151,4214151,PRINCESA,SANTA CATARINA,CIDADE,-53.5981058756425,-26.4443352068206,579.015419,0.706,1,5.5,6.5,23.81,369,106,28,16,2,1,46068.84,3.5,72.6,23.2,31.9,99.3,99999999999993.0,2964,3054,,31679309.85,34926132.11,85.69,33.16,4214151,DIANGELE FABIELE KLEIN MARMITT,85.598,Centro Local (5),São José do Cedro - Centro de Zona B (4B),Não pertence,Mata Atlântica,Chapecó,São Miguel do Oeste,Oeste Catarinense,São Miguel do Oeste,0.8,34.63,983.0,1.9
4216701,4216701,SÃO JOSÉ DO CEDRO,SANTA CATARINA,PROJETO DE ASSENTAMENTO,-53.4205680369535,-26.5008136632857,606.201542,0.731,5,5.3,6.7,6.29,1508,376,121,43,9,2,41136.18,46.8,86.3,30.1,29.4,98.9,99999999999993.0,14167,14491,14.1,83169043.53,90152158.51,76.72,29.88,4216701,FERNANDO JÚLIO WILL,280.76,Centro de Zona B (4B),São Miguel do Oeste - Centro Subregional A (3A),Não pertence,Mata Atlântica,Chapecó,São Miguel do Oeste,Oeste Catarinense,São Miguel do Oeste,6.79,50.46,4233.0,2.0
4202099,4202099,BARRA BONITA,SANTA CATARINA,CIDADE,-53.4413025406045,-26.6522935998562,317.891799,0.701,2,,6.1,,208,36,28,12,3,1,32170.94,34.7,36.6,12.5,29.9,96.5,99999999999993.0,1668,1662,,24696914.49,26731529.05,91.46,16.85,4202099,AGNALDO DERESZ,92.934,Centro Local (5),São Miguel do Oeste - Centro Subregional A (3A),Não pertence,Mata Atlântica,Chapecó,São Miguel do Oeste,Oeste Catarinense,São Miguel do Oeste,0.33,18.02,281.0,2.5
4215208,4215208,ROMELÂNDIA,SANTA CATARINA,AUI,-53.2368141954022,-26.6115140876964,385.398874,0.692,4,4.5,5.3,,463,152,47,21,4,1,24284.48,27.4,98.0,7.9,37.3,97.8,99999999999993.0,4823,4757,,33009862.19,37741050.22,88.55,13.17,4215208,JUAREZ FURTADO,223.333,Centro Local (5),São Miguel do Oeste - Centro Subregional A (3A),Não pertence,Mata Atlântica,Chapecó,São Miguel do Oeste,Oeste Catarinense,São Miguel do Oeste,1.57,21.6,635.0,2.5
4200804,4200804,ANCHIETA,SANTA CATARINA,CIDADE,-53.333270177229,-26.5356808606572,700.527395,0.699,2,5.2,6.7,,660,147,57,26,6,1,37207.3,27.0,58.2,15.9,32.2,99.8,99999999999993.0,5943,5984,,38992786.85,43389354.52,86.68,26.94,4200804,MOACIR PEDRO PIOVEZANI,232.348,Centro Local (5),São Miguel do Oeste - Centro Subregional A (3A),Não pertence,Mata Atlântica,Chapecó,São Miguel do Oeste,Oeste Catarinense,São Miguel do Oeste,2.14,25.58,1601.0,1.9
4204707,4204707,CUNHA PORÃ,SANTA CATARINA,CIDADE,-53.1738455719665,-26.8917270824506,515.223585,0.742,5,4.8,6.3,,1180,255,88,26,4,1,83184.26,26.1,96.1,24.6,25.6,99.3,99999999999993.0,10953,11208,264.8,61702161.59,77371859.17,82.65,40.84,4204707,LUZIA ILIANE VACARIN,220.099,Centro Local (5),Arranjo Populacional de Chapecó/SC - Capital Regional B (2B),Não pertence,Mata Atlântica,Chapecó,Maravilha,Oeste Catarinense,Chapecó,3.63,49.76,4473.0,2.3
4207759,4207759,IRACEMINHA,SANTA CATARINA,VILA,-53.38377499729,-26.8721224222116,353.327316,0.722,3,5.0,6.8,,394,129,58,23,4,1,34297.27,16.0,55.6,15.7,29.4,98.9,99999999999993.0,3986,4005,,36564173.1,42070816.82,90.76,17.44,4207759,ROBERTO FORESTI,165.147,Centro Local (5),Maravilha - Centro de Zona A (4A)\; São Miguel do Oeste - Centro Subregional A (3A),Não pertence,Mata Atlântica,Chapecó,Maravilha,Oeste Catarinense,Chapecó,1.12,24.14,695.0,2.4
4210506,4210506,MARAVILHA,SANTA CATARINA,CIDADE,-53.174818815895,-26.7616239472618,571.90925,0.781,8,5.1,6.6,5.0,3344,800,208,87,8,4,67792.65,39.2,85.0,41.2,22.8,97.7,99999999999993.0,28251,30155,,160408049.5,178576053.38,75.85,49.1,4210506,VINICIUS VENTURA,170.339,Centro de Zona A (4A),Arranjo Populacional de Chapecó/SC - Capital Regional B (2B),Não pertence,Mata Atlântica,Chapecó,Maravilha,Oeste Catarinense,Chapecó,10.19,165.85,13870.0,2.2
4204756,4204756,CUNHATAÍ,SANTA CATARINA,CIDADE,-53.0932904925904,-26.9731396983276,412.311092,0.754,1,4.9,7.3,125.0,230,54,25,14,2,1,33782.2,14.5,58.0,22.8,26.5,100.0,99999999999993.0,1968,2018,,28338891.18,33762684.85,91.26,26.42,4204756,DIRCEU HOSS,54.811,Centro Local (5),Arranjo Populacional de São Carlos - Águas de Chapecó/SC - Centro de Zona B (4B),Não pertence,Mata Atlântica,Chapecó,Chapecó,Oeste Catarinense,Chapecó,0.93,35.91,520.0,1.9
